{"version": 0.6, "generator": "Overpass API 0.7.62.1 084b4234", "osm3s": {"timestamp_osm_base": "2024-05-11T11:29:14Z", "copyright": "The data included in this document is from www.openstreetmap.org. The data is made available under ODbL."}, "elements": [{"type": "node", "id": 189770160, "lat": 45.5418598, "lon": -73.6634547, "tags": {"amenity": "restaurant", "name": "GP Restaurant"}}, {"type": "node", "id": 191024110, "lat": 45.5476096, "lon": -73.6723185, "tags": {"amenity": "restaurant", "created_by": "JOSM", "name": "Pizza Roni"}}, {"type": "node", "id": 191024149, "lat": 45.5483897, "lon": -73.67179, "tags": {"amenity": "restaurant", "name": "La Cr\u00e8mi\u00e8re"}}, {"type": "node", "id": 191024164, "lat": 45.5492311, "lon": -73.6719597, "tags": {"amenity": "restaurant", "name": "Le Palais du Chausson et de la Pizza"}}, {"type": "node", "id": 191082576, "lat": 45.5533597, "lon": -73.6694912, "tags": {"amenity": "restaurant", "name": "Restaurant Parasol Chinois"}}, {"type": "node", "id": 208768477, "lat": 45.5039092, "lon": -73.5715178}, {"type": "node", "id": 237575895, "lat": 45.493071, "lon": -73.5804177, "tags": {"addr:city": "Montr\u00e9al", "addr:housenumber": "1871", "addr:postcode": "H3H 1M1", "addr:province": "QC", "addr:street": "Rue Sainte-Catherine Ouest", "amenity": "restaurant", "capacity": "75", "cuisine": "asian", "name": "Noodles Star", "opening_hours": "Mo-Su 11:00-23:00", "phone": "+1-514-932-2888", "smoking": "no", "wheelchair": "limited"}}, {"type": "node", "id": 237584792, "lat": 45.513161, "lon": -73.5706145, "tags": {"amenity": "restaurant", "check_date": "2023-08-06", "name": "Frite Alors!", "opening_hours": "Su-Th 11:30-23:00, Fr,Sa 11:30-01:00", "wheelchair": "no"}}, {"type": "node", "id": 237584794, "lat": 45.5223731, "lon": -73.5779394, "tags": {"addr:street": "Rue Rivard", "amenity": "restaurant", "check_date": "2023-03-04", "cuisine": "diner;friture", "name": "Frite Alors", "payment:interac": "yes", "payment:mastercard": "yes", "payment:visa": "yes", "wheelchair": "no"}}, {"type": "node", "id": 237585894, "lat": 45.520787, "lon": -73.5984245, "tags": {"addr:city": "Montr\u00e9al", "addr:housenumber": "5235A", "addr:postcode": "H2V 4G9", "addr:street": "Avenue du Parc", "amenity": "restaurant", "capacity": "70", "check_date": "2023-08-10", "name": "Frite Alors!", "payment:mastercard": "yes", "payment:visa": "yes", "website": "http://fritealors.com/avenue-du-parc.html", "wheelchair": "limited"}}, {"type": "node", "id": 237589460, "lat": 45.5194363, "lon": -73.5986133, "tags": {"amenity": "cafe", "created_by": "JOSM", "name": "La Croissanterie Figaro"}}, {"type": "node", "id": 237590709, "lat": 45.5198595, "lon": -73.5959331, "tags": {"addr:housenumber": "5101", "addr:postcode": "H2V 4G3", "addr:province": "QC", "addr:street": "Avenue du Parc", "addr:suburb": "Outremont", "amenity": "cafe", "brand": "Columbus Caf\u00e9 & Co", "brand:wikidata": "Q90406058", "brand:wikipedia": "fr:Columbus Caf\u00e9 & Co", "changing_table": "no", "check_date": "2023-11-11", "cuisine": "coffee_shop", "internet_access": "wlan", "internet_access:fee": "no", "name": "Columbus Caf\u00e9 & Co", "opening_hours": "Mo-Fr 07:30-19:00; Sa-Su 08:30-19:00", "outdoor_seating": "no", "payment:cash": "yes", "payment:mastercard": "yes", "payment:visa": "yes", "phone": "+1 514 907 7827", "takeaway": "yes", "toilets:wheelchair": "yes", "website": "https://www.columbuscafe.com/", "wheelchair": "yes"}}, {"type": "node", "id": 245512739, "lat": 45.497185, "lon": -73.5754903, "tags": {"addr:city": "Montr\u00e9al", "addr:housenumber": "1356", "addr:postcode": "H3G 1P6", "addr:province": "Qu\u00e9bec", "addr:street": "Rue Sainte-Catherine Ouest", "amenity": "restaurant", "brand": "3 Brasseurs", "brand:wikidata": "Q3230326", "contact:phone": "+1 514 788 9788", "contact:website": "https://www.les3brasseurs.ca/fr/trouver-un-3-brasseurs/crescent/", "cuisine": "burger;pizza;seafood", "microbrewery": "yes", "name": "3 Brasseurs", "name:en": "3 Brewers", "not:brand:wikidata": "Q3230326", "official_name": "Les 3 Brasseurs", "phone": "+1 514-788-9788", "takeaway": "yes", "website": "https://www.les3brasseurs.ca/fr/trouver-un-3-brasseurs/crescent/", "wheelchair": "yes"}}, {"type": "node", "id": 245512741, "lat": 45.4972187, "lon": -73.5774768, "tags": {"addr:housenumber": "1445", "addr:street": "Rue Bishop", "amenity": "restaurant", "cuisine": "thai", "diet:vegetarian": "no", "name": "Le Garden Room", "opening_hours": "Mo-We 12:00-23:00; Th-Su 12:00-02:00", "phone": "+14386035603", "website": "https://www.legardenroom.com/", "wheelchair": "yes"}}, {"type": "node", "id": 299872785, "lat": 45.5250254, "lon": -73.5862543, "tags": {"addr:city": "Montr\u00e9al", "addr:housenumber": "371", "addr:postcode": "H2J 2L5", "addr:province": "Qu\u00e9bec", "addr:street": "Avenue Villeneuve Est", "amenity": "restaurant", "name": "Monsieur B", "phone": "+1 514 845 6066", "website": "https://www.monsieurb.ca/"}}, {"type": "node", "id": 299886511, "lat": 45.5439616, "lon": -73.5808831}, {"type": "node", "id": 300077245, "lat": 45.5272177, "lon": -73.580143, "tags": {"addr:housenumber": "957", "addr:postcode": "H2J 1X4", "addr:province": "QC", "addr:street": "Avenue du Mont-Royal Est", "addr:suburb": "Le Plateau-Mont-Royal", "amenity": "cafe", "email": "tiphainexie@gmail.com", "internet_access": "wlan", "internet_access:fee": "no", "name": "Caf\u00e9 Expressions", "opening_hours": "Mo-Su 07:30-22:00", "phone": "+1 514 528 9688", "website": "https://fr-ca.facebook.com/cafeexpressions"}}, {"type": "node", "id": 300491007, "lat": 45.6052284, "lon": -73.5173941, "tags": {"amenity": "pharmacy", "brand": "Uniprix", "brand:wikidata": "Q683265", "dispensing": "yes", "healthcare": "pharmacy", "name": "Uniprix", "operator": "Uniprix"}}, {"type": "node", "id": 305549398, "lat": 45.497192, "lon": -73.6246414, "tags": {"addr:city": "Montr\u00e9al", "addr:housenumber": "5510", "addr:postcode": "H3T 1Y9", "addr:province": "Qu\u00e9bec", "addr:street": "Chemin de la C\u00f4te-des-Neiges", "amenity": "pharmacy", "brand": "Jean Coutu", "brand:wikidata": "Q3117457", "dispensing": "yes", "drive_through": "no", "healthcare": "pharmacy", "name": "Jean Coutu", "opening_hours": "Mo-Fr 8:00-22:00; Sa-Su 9:00-22:00", "operator": "Groupe Jean Coutu", "phone": "+1-514-344-8338", "website": "https://www.jeancoutu.com/localisateur-succursale/montreal-5510-chemin-de-la-cote-des-neiges-h3t-1y9/215/"}}, {"type": "node", "id": 343490371, "lat": 45.5163277, "lon": -73.5776499, "tags": {"addr:city": "Montr\u00e9al", "addr:housenumber": "3895", "addr:postcode": "H2W 1X9", "addr:province": "QC", "addr:street": "Boulevard Saint-Laurent", "amenity": "restaurant", "email": "info@schwartzsdeli.com", "name": "Schwartz's", "opening_hours": "Su-Th 10:30-00:30; Sa 10:30-02:30; Fr 10:30-01:30", "phone": "+1-514-842-4813", "website": "https://schwartzsdeli.com", "wheelchair": "yes", "wikidata": "Q3475576", "wikipedia": "Schwartz's"}}, {"type": "node", "id": 391849564, "lat": 45.4956457, "lon": -73.5796279, "tags": {"amenity": "cafe", "brand": "Starbucks", "brand:wikidata": "Q37158", "cuisine": "coffee_shop", "name": "Starbucks", "official_name": "Starbucks Coffee", "takeaway": "yes", "wheelchair": "yes"}}, {"type": "node", "id": 412642014, "lat": 45.4808874, "lon": -73.5787799, "tags": {"amenity": "restaurant", "name": "Green Spot", "wheelchair": "no"}}, {"type": "node", "id": 420041499, "lat": 45.4945397, "lon": -73.560401, "tags": {"amenity": "cafe", "cuisine": "sandwich", "indoor_seating": "yes", "name": "Restaurant Guan", "opening_hours": "Mo-Th 11:00-20:00", "outdoor_seating": "no"}}, {"type": "node", "id": 424724186, "lat": 45.512661, "lon": -73.5702494, "tags": {"amenity": "cafe", "brand": "Tim Hortons", "brand:wikidata": "Q175106", "brand:wikipedia": "en:Tim Hortons", "check_date": "2023-08-06", "cuisine": "coffee_shop", "internet_access": "wlan", "internet_access:fee": "yes", "name": "Tim Hortons", "takeaway": "yes", "wheelchair": "yes"}}, {"type": "node", "id": 424780621, "lat": 45.5084095, "lon": -73.5647937, "tags": {"amenity": "restaurant", "brand": "St-Hubert", "brand:wikidata": "Q3495225", "brand:wikipedia": "fr:St-Hubert (restaurant)", "cuisine": "chicken;barbecue", "name": "St-Hubert", "wheelchair": "yes"}}, {"type": "node", "id": 425718548, "lat": 45.5145854, "lon": -73.5619914, "tags": {"addr:city": "Montr\u00e9al", "addr:housenumber": "1551", "addr:postcode": "H2X 3K3", "addr:street": "Rue Saint-Denis", "amenity": "cafe", "brand": "Second Cup", "brand:wikidata": "Q862180", "brand:wikipedia": "en:Second Cup", "cuisine": "coffee_shop", "name": "Second Cup", "takeaway": "yes"}}, {"type": "node", "id": 426003015, "lat": 45.4965793, "lon": -73.5696976, "tags": {"amenity": "restaurant", "brand": "La Cage", "brand:wikidata": "Q3206980", "brand:wikipedia": "fr:La Cage aux Sports", "cuisine": "burger;chicken;sandwich;fish;pasta", "name": "La Cage", "wheelchair": "yes"}}, {"type": "node", "id": 427850302, "lat": 45.5260982, "lon": -73.5348205, "tags": {"amenity": "restaurant", "name": "Dagwoods"}}, {"type": "node", "id": 427850303, "lat": 45.5259646, "lon": -73.5347013, "tags": {"amenity": "restaurant", "name": "Chic'n'chic"}}, {"type": "node", "id": 427850304, "lat": 45.5231424, "lon": -73.5353687, "tags": {"amenity": "restaurant", "brand:wikipedia": "en:Subway (restaurant)", "cuisine": "poutine;regional", "name": "Halte Gourmande", "operator": "La Ronde - Parc Six Flags"}}, {"type": "node", "id": 427850327, "lat": 45.5223075, "lon": -73.5369678, "tags": {"amenity": "restaurant", "name": "Route 67"}}, {"type": "node", "id": 445813466, "lat": 45.4889177, "lon": -73.5847719, "tags": {"addr:city": "Westmount", "addr:housenumber": "4000", "addr:postcode": "H3Z 1P1", "addr:province": "QC", "addr:street": "Rue Sainte-Catherine Ouest", "amenity": "restaurant", "cuisine": "sushi", "name": "Miso"}}, {"type": "node", "id": 445813806, "lat": 45.4888033, "lon": -73.5848834, "tags": {"addr:housenumber": "4006", "addr:postcode": "H3Z 1P2", "addr:street": "Saint Catherine Street West", "amenity": "restaurant", "cuisine": "japanese", "name": "Imadake", "opening_hours": "Su-We 17:00-22:30; Th 17:00-23:30; Fr-Sa 17:00-01:00", "phone": "+1-514-931-8833", "website": "https://imadake.ca/"}}, {"type": "node", "id": 454890862, "lat": 45.4401993, "lon": -73.6217005, "tags": {"amenity": "restaurant", "brand": "Pizza Hut", "brand:wikidata": "Q191615", "brand:wikipedia": "en:Pizza Hut", "cuisine": "pizza", "name": "Pizza Hut"}}, {"type": "node", "id": 454890863, "lat": 45.4402319, "lon": -73.6224568, "tags": {"addr:housenumber": "7573", "addr:postcode": "H8N 1X3", "addr:province": "QC", "addr:street": "Boulevard Newman", "addr:suburb": "LaSalle", "amenity": "restaurant", "internet_access": "wlan", "internet_access:fee": "no", "name": "Chez Cora", "phone": "+1 514 364 5884", "website": "https://www.chezcora.com/"}}, {"type": "node", "id": 456028172, "lat": 45.4648091, "lon": -73.5676783, "tags": {"addr:city": "Montr\u00e9al", "addr:housenumber": "3900", "addr:street": "Rue \u00c9thel", "amenity": "restaurant", "name": "Restaurant Beba", "outdoor_seating": "yes", "reservation": "yes", "toilets": "yes", "wheelchair": "no"}}, {"type": "node", "id": 456028176, "lat": 45.4650439, "lon": -73.5672491, "tags": {"addr:city": "Montr\u00e9al", "addr:housenumber": "275", "addr:street": "Rue Hickson", "amenity": "restaurant", "name": "Le Garage", "source": "local_knowledge", "wheelchair": "no"}}, {"type": "node", "id": 458913003, "lat": 45.5138039, "lon": -73.5720332, "tags": {"amenity": "restaurant", "name": "La Fabrique de Bagel"}}, {"type": "node", "id": 458914421, "lat": 45.5130238, "lon": -73.5709896, "tags": {"amenity": "restaurant", "name": "Shaker Cuisine & Mixologie"}}, {"type": "node", "id": 458918543, "lat": 45.5140664, "lon": -73.572641, "tags": {"addr:housenumber": "3601", "addr:postcode": "H2X 2V5", "addr:province": "QC", "addr:street": "Boulevard Saint-Laurent", "addr:suburb": "Le Plateau-Mont-Royal", "amenity": "cafe", "brand": "Starbucks", "brand:wikidata": "Q37158", "brand:wikipedia": "en:Starbucks", "cuisine": "coffee_shop", "indoor_seating": "yes", "internet_access": "wlan", "name": "Starbucks", "official_name": "Starbucks Coffee", "opening_hours": "Mo-Su 06:30-23:00", "outdoor_seating": "yes", "phone": "+1-514-285-0009", "takeaway": "yes", "website": "https://www.cafedepot.com/", "wheelchair": "yes"}}, {"type": "node", "id": 458918548, "lat": 45.514799, "lon": -73.571876, "tags": {"amenity": "restaurant", "cuisine": "italian", "name": "Primo Amore", "outdoor_seating": "yes", "wheelchair": "limited"}}, {"type": "node", "id": 458919689, "lat": 45.51551, "lon": -73.571037, "tags": {"addr:housenumber": "170", "addr:postcode": "H2X 1B7", "addr:province": "QC", "addr:street": "Rue Prince Arthur Est", "addr:suburb": "Le Plateau-Mont-Royal", "amenity": "restaurant", "cuisine": "french", "internet_access": "wlan", "name": "Les Deux Gamins", "outdoor_seating": "yes", "phone": "+1-514-288-3389", "website": "www.lesdeuxgaminsmontreal.com", "wheelchair": "yes"}}, {"type": "node", "id": 458919691, "lat": 45.515707, "lon": -73.570823, "tags": {"amenity": "restaurant", "cuisine": "greek", "name": "Casa Grecque", "outdoor_seating": "yes", "wheelchair": "limited"}}, {"type": "node", "id": 458919702, "lat": 45.5154594, "lon": -73.571068, "tags": {"amenity": "restaurant", "cuisine": "french", "name": "Le Square"}}, {"type": "node", "id": 459031138, "lat": 45.5143506, "lon": -73.5723846, "tags": {"addr:city": "Montr\u00e9al", "addr:housenumber": "17", "addr:street": "Rue Prince-Arthur Est", "amenity": "restaurant", "cuisine": "barbecue", "name": "Diablos"}}, {"type": "node", "id": 459929702, "lat": 45.5165141, "lon": -73.5703617}, {"type": "node", "id": 461841616, "lat": 45.5149408, "lon": -73.5628055, "tags": {"amenity": "restaurant", "check_date": "2023-03-13", "designation": "dessert", "name": "Juliette et Chocolat", "payment:credit_cards": "yes"}}, {"type": "node", "id": 462248724, "lat": 45.5009937, "lon": -73.5590024, "tags": {"amenity": "cafe", "name": "Presse Caf\u00e9", "wheelchair": "yes"}}, {"type": "node", "id": 462248747, "lat": 45.5016003, "lon": -73.5590701, "tags": {"amenity": "restaurant", "cuisine": "asian", "name": "Szechuan"}}, {"type": "node", "id": 462248796, "lat": 45.5018084, "lon": -73.5598159, "tags": {"amenity": "restaurant", "name": "Clafouti"}}, {"type": "node", "id": 462248800, "lat": 45.5016409, "lon": -73.5599448, "tags": {"amenity": "restaurant", "name": "Bio Train"}}, {"type": "node", "id": 462248802, "lat": 45.5016892, "lon": -73.5599202, "tags": {"amenity": "restaurant", "name": "Les gourmets press\u00e9s"}}, {"type": "node", "id": 462248835, "lat": 45.5007852, "lon": -73.5595086, "tags": {"amenity": "restaurant", "name": "49th Parallel"}}, {"type": "node", "id": 463988306, "lat": 45.5165804, "lon": -73.5581501, "tags": {"amenity": "pharmacy", "brand": "Pharmaprix", "brand:wikidata": "Q1820137", "brand:wikipedia": "fr:Pharmaprix", "healthcare": "pharmacy", "name": "Pharmaprix", "opening_hours": "Mo-Su 08:00-24:00", "website": "https://www.pharmaprix.ca/en/store-locator/store/29", "website:en": "https://www.pharmaprix.ca/en/store-locator/store/29", "website:fr": "https://www.pharmaprix.ca/fr/store-locator/store/29", "wheelchair": "no"}}, {"type": "node", "id": 463993070, "lat": 45.5172868, "lon": -73.557458, "tags": {"amenity": "restaurant", "name": "Chez Cora", "opening_hours": "PH,Mo-Su 07:00-15:00", "wheelchair": "yes"}}, {"type": "node", "id": 463993484, "lat": 45.5174175, "lon": -73.5573439, "tags": {"amenity": "restaurant", "brand": "St-Hubert", "brand:wikidata": "Q3495225", "cuisine": "chicken;barbecue", "name": "St-Hubert", "opening_hours": "Su-We 11:00-22:00; Th-Sa 11:00-23:00", "wheelchair": "yes"}}, {"type": "node", "id": 463995487, "lat": 45.5176266, "lon": -73.5571281, "tags": {"amenity": "restaurant", "cuisine": "italian", "name": "Piazzetta", "wheelchair": "yes"}}, {"type": "node", "id": 468969715, "lat": 45.5057517, "lon": -73.5537819, "tags": {"amenity": "restaurant", "name": "Chez Suzzette Crepes"}}, {"type": "node", "id": 468969740, "lat": 45.5056494, "lon": -73.5600561, "tags": {"amenity": "cafe", "brand": "Tim Hortons", "brand:wikidata": "Q175106", "brand:wikipedia": "en:Tim Hortons", "cuisine": "coffee_shop", "internet_access": "wlan", "internet_access:fee": "yes", "name": "Tim Hortons", "takeaway": "yes"}}, {"type": "node", "id": 468970291, "lat": 45.5079593, "lon": -73.5539449, "tags": {"amenity": "restaurant", "name": "Restaurant des Gouverneurs"}}, {"type": "node", "id": 468970300, "lat": 45.5075273, "lon": -73.5527994, "tags": {"amenity": "restaurant", "name": "Le Verre de l'Ange"}}, {"type": "node", "id": 471063426, "lat": 45.5142731, "lon": -73.5730536, "tags": {"addr:city": "Montr\u00e9al", "addr:housenumber": "3633", "addr:postcode": "H2X 2V5", "addr:province": "QC", "addr:street": "Boulevard Saint-Laurent", "amenity": "restaurant", "name": "31\u00b0 Latitude"}}, {"type": "node", "id": 471064654, "lat": 45.5146351, "lon": -73.5738661, "tags": {"amenity": "restaurant", "cuisine": "indian", "name": "Mumbai Masala"}}, {"type": "node", "id": 471065148, "lat": 45.5142541, "lon": -73.5759491, "tags": {"amenity": "restaurant", "name": "Mamma's", "note": "Closed", "wheelchair": "limited"}}, {"type": "node", "id": 477053610, "lat": 45.4766883, "lon": -73.6221037, "tags": {"addr:city": "Montr\u00e9al", "addr:housenumber": "5515", "addr:street": "Avenue de Monkland", "amenity": "restaurant", "cuisine": "japanese", "name": "Mikado", "source": "survey"}}, {"type": "node", "id": 484690279, "lat": 45.5496021, "lon": -73.6008604, "tags": {"amenity": "restaurant", "name": "Roberto"}}, {"type": "node", "id": 486668548, "lat": 45.493228, "lon": -73.5746428, "tags": {"amenity": "cafe", "internet_access": "wlan", "name": "Van Houtte"}}, {"type": "node", "id": 497839303, "lat": 45.5257124, "lon": -73.5815843, "tags": {"addr:street": "Avenue Mont-Royal Est", "amenity": "cafe", "brand": "Starbucks", "brand:wikidata": "Q37158", "brand:wikipedia": "en:Starbucks", "check_date": "2023-05-29", "cuisine": "coffee_shop", "internet_access": "wlan", "internet_access:fee": "no", "name": "Starbucks", "official_name": "Starbucks Coffee", "opening_hours": "Mo-Fr 06:00-23:00;Sa,Su 07:00-23:00", "payment:mastercard": "yes", "payment:visa": "yes", "source": "Local knowledge", "takeaway": "yes", "wheelchair": "limited"}}, {"type": "node", "id": 497839720, "lat": 45.5251107, "lon": -73.582083, "tags": {"addr:city": "Montr\u00e9al", "addr:housenumber": "501", "addr:postcode": "H2J 1W6", "addr:province": "QC", "addr:street": "Avenue du Mont-Royal Est", "amenity": "pharmacy", "brand": "Jean Coutu", "brand:wikidata": "Q3117457", "brand:wikipedia": "en:Jean Coutu Group", "check_date": "2023-05-29", "drive_through": "no", "healthcare": "pharmacy", "level": "0", "name": "Jean Coutu", "opening_hours": "Mo-Sa 09:00-23:00;Su 09:30-23:00", "payment:mastercard": "yes", "payment:visa": "yes", "wheelchair": "yes"}}, {"type": "node", "id": 497841827, "lat": 45.5263316, "lon": -73.5810164, "tags": {"addr:housenumber": "837", "addr:postcode": "H2J 1W9", "addr:province": "QC", "addr:street": "Avenue du Mont-Royal Est", "addr:suburb": "Le Plateau-Mont-Royal", "amenity": "restaurant", "check_date": "2022-12-30", "internet_access": "wlan", "internet_access:fee": "no", "website": "https://www.chocolatsfavoris.com/"}}, {"type": "node", "id": 514593512, "lat": 45.5292629, "lon": -73.5782694, "tags": {"addr:housenumber": "1241", "addr:postcode": "H2J 1Y2", "addr:province": "QC", "addr:street": "Avenue du Mont-Royal Est", "addr:suburb": "Le Plateau-Mont-Royal", "amenity": "restaurant", "check_date": "2023-09-06", "cuisine": "indian", "name": "India Rosa", "opening_hours": "Mo-Su 11:00-24:00", "outdoor_seating": "yes", "payment:mastercard": "yes", "payment:visa": "yes", "phone": "+1 514 543 1880", "website": "https://indiarosa.com/", "wheelchair": "limited"}}, {"type": "node", "id": 522863914, "lat": 45.5346919, "lon": -73.5824438, "tags": {"addr:city": "Montr\u00e9al", "addr:housenumber": "1546", "addr:postcode": "H2J1H9", "addr:province": "QC", "addr:street": "Avenue Laurier Est", "amenity": "cafe", "internet_access": "no", "name": "M\u00e9chant Pinson", "opening_hours": "Mo-Fr 07:00-19:00, Sa,Su 08:00-19:00", "outdoor_seating": "yes", "phone": "+15149691096", "website": "https://mechantspinsons.com/", "wheelchair": "limited"}}, {"type": "node", "id": 598277445, "lat": 45.5723893, "lon": -73.549107}, {"type": "node", "id": 598277447, "lat": 45.5722423, "lon": -73.5486602}, {"type": "node", "id": 598277455, "lat": 45.5729964, "lon": -73.5481394}, {"type": "node", "id": 598277456, "lat": 45.5731515, "lon": -73.5486021}, {"type": "node", "id": 598411895, "lat": 45.5085428, "lon": -73.5474842}, {"type": "node", "id": 598411896, "lat": 45.5085913, "lon": -73.5473012}, {"type": "node", "id": 598411897, "lat": 45.5085835, "lon": -73.5476873}, {"type": "node", "id": 598411898, "lat": 45.50844, "lon": -73.5472949}, {"type": "node", "id": 598411899, "lat": 45.5084682, "lon": -73.5475599}, {"type": "node", "id": 598411900, "lat": 45.5085387, "lon": -73.5476854}, {"type": "node", "id": 652871220, "lat": 45.4975883, "lon": -73.6538398, "tags": {"addr:city": "Montr\u00e9al", "addr:housenumber": "5195", "addr:street": "Rue Par\u00e9", "amenity": "restaurant", "cuisine": "indian", "diet:vegetarian": "yes", "name": "Pushap"}}, {"type": "node", "id": 652888137, "lat": 45.4947273, "lon": -73.6519632, "tags": {"amenity": "restaurant", "name": "Dunn's"}}, {"type": "node", "id": 652888467, "lat": 45.4946137, "lon": -73.6518858, "tags": {"addr:city": "Montreal", "addr:housenumber": "7373", "addr:postcode": "H4P 2G8", "addr:street": "Boulevard D\u00e9carie", "amenity": "restaurant", "cuisine": "asian", "name": "Kanda", "phone": "+1 514 735-7888", "website": "http://www.sushikanda.com/"}}, {"type": "node", "id": 665607743, "lat": 45.543654, "lon": -73.6287953, "tags": {"addr:city": "Montr\u00e9al", "addr:housenumber": "531", "addr:postcode": "H2P 1V4", "addr:province": "QC", "addr:street": "Rue Jarry Est", "amenity": "pharmacy", "brand": "Jean Coutu", "brand:wikidata": "Q3117457", "brand:wikipedia": "fr:Groupe Jean Coutu", "dispensing": "yes", "drive_through": "no", "healthcare": "pharmacy", "name": "Jean Coutu", "opening_hours": "Mo-Fr 09:00-21:00; Sa-Su 09:00-20:00", "wheelchair": "yes"}}, {"type": "node", "id": 670906724, "lat": 45.5360732, "lon": -73.6034452, "tags": {"addr:housenumber": "6500", "addr:street": "Rue Saint-Hubert", "amenity": "pharmacy", "branch": "St Hubert", "brand": "Jean Coutu", "brand:wikidata": "Q3117457", "healthcare": "pharmacy", "name": "Jean Coutu", "phone": "+1-514-272-3345", "wheelchair": "yes"}}, {"type": "node", "id": 670911395, "lat": 45.535747, "lon": -73.6035501, "tags": {"amenity": "restaurant", "name": "Mr. Chich taouk"}}, {"type": "node", "id": 670935540, "lat": 45.5186101, "lon": -73.6168033, "tags": {"addr:city": "Montr\u00e9al", "addr:housenumber": "1541", "addr:postcode": "H2V 1L4", "addr:province": "Qu\u00e9bec", "addr:street": "Avenue Van Horne", "amenity": "restaurant", "cuisine": "mediterranean", "diet:halal": "yes", "name": "Restaurant Le M\u00e9choui", "phone": "+1-514-273-7676", "smoking": "no"}}, {"type": "node", "id": 747089693, "lat": 45.5148758, "lon": -73.5654105, "tags": {"amenity": "restaurant", "name": "TiBoeuf"}}, {"type": "node", "id": 747091378, "lat": 45.50861, "lon": -73.562152, "tags": {"amenity": "restaurant", "cuisine": "chinese", "delivery": "no", "name": "Restaurant Niu Kee", "takeaway": "yes"}}, {"type": "node", "id": 762255638, "lat": 45.4815765, "lon": -73.5771078, "tags": {"amenity": "pharmacy", "brand": "Pharmaprix", "brand:wikidata": "Q1820137", "brand:wikipedia": "en:Shoppers Drug Mart", "check_date:opening_hours": "2023-04-01", "healthcare": "pharmacy", "name": "Pharmaprix", "opening_hours": "Mo-Fr 09:00-22:00; Sa,Su 09:00-21:00", "website": "https://www.pharmaprix.ca/en/store-locator/store/1855", "website:en": "https://www.pharmaprix.ca/en/store-locator/store/1855", "website:fr": "https://www.pharmaprix.ca/fr/store-locator/store/1855", "wheelchair": "yes"}}, {"type": "node", "id": 764524120, "lat": 45.5574884, "lon": -73.5892432, "tags": {"amenity": "restaurant", "cuisine": "chicken", "name": "Au Coq"}}, {"type": "node", "id": 764524151, "lat": 45.540941, "lon": -73.6036921, "tags": {"addr:housenumber": "1251", "addr:street": "Rue Saint-Zotique Est", "amenity": "cafe", "name": "Caf\u00e9 Johnny M", "opening_hours": "07:00-19:00", "phone": "+1-514-495-7975"}}, {"type": "node", "id": 775041493, "lat": 45.5565189, "lon": -73.5948216, "tags": {"amenity": "restaurant", "cuisine": "vietnamese", "name": "Phnong Thao", "note": "Apportez votre vin"}}, {"type": "node", "id": 780819603, "lat": 45.5548727, "lon": -73.5958337, "tags": {"addr:city": "Montr\u00e9al", "addr:housenumber": "2980", "addr:province": "QC", "addr:street": "Rue B\u00e9langer", "amenity": "pharmacy", "brand": "Jean Coutu", "brand:wikidata": "Q3117457", "brand:wikipedia": "fr:Groupe Jean Coutu", "healthcare": "pharmacy", "name": "Jean Coutu", "operator": "Pierre-Jean Cyr;Mich\u00e8le Favreau"}}, {"type": "node", "id": 797783870, "lat": 45.4546764, "lon": -73.5640431}, {"type": "node", "id": 797783871, "lat": 45.4549422, "lon": -73.5638407}, {"type": "node", "id": 797783872, "lat": 45.4548761, "lon": -73.5636798}, {"type": "node", "id": 797783873, "lat": 45.4545981, "lon": -73.5638542}, {"type": "node", "id": 805170916, "lat": 45.5409745, "lon": -73.608137, "tags": {"addr:housenumber": "1100", "addr:street": "Rue B\u00e9langer", "air_conditioning": "yes", "amenity": "restaurant", "bar": "yes", "changing_table": "yes", "changing_table:location": "dedicated_room", "check_date": "2023-11-11", "cuisine": "it;italian", "delivery": "no", "diet:halal": "no", "diet:kosher": "no", "diet:vegetarian": "yes", "indoor_seating": "yes", "name": "Stella Pizzeria", "opening_hours": "Mo off; Tu-We,Sa 17:00-22:00; Th-Fr 11:30-14:30,17:00-22:00; Su 17:00-21:00", "outdoor_seating": "yes", "payment:cash": "yes", "payment:mastercard": "yes", "payment:visa": "yes", "phone": "+1 5145437743", "reservation": "yes", "smoking": "no", "takeaway": "yes", "toilets": "yes", "toilets:wheelchair": "yes", "website": "https://stellapizzeria.ca/", "wheelchair": "yes"}}, {"type": "node", "id": 810790772, "lat": 45.5249441, "lon": -73.5854423, "tags": {"addr:housenumber": "4690", "addr:street": "Rue Saint-Denis", "amenity": "restaurant", "level": "0", "name": "Ouzeri"}}, {"type": "node", "id": 810791050, "lat": 45.5291657, "lon": -73.5877742, "tags": {"addr:housenumber": "803", "addr:street": "Avenue Laurier Est", "amenity": "cafe", "name": "Carmen Felipe", "phone": "+1-514-798-0807", "website": "https://carmenfelipe.com/"}}, {"type": "node", "id": 821375156, "lat": 45.5210335, "lon": -73.6106649, "tags": {"addr:country": "CA", "addr:housenumber": "1231", "addr:postcode": "H2V 1P2", "addr:province": "QC", "addr:street": "Avenue Lajoie", "amenity": "restaurant", "contact:phone": "+1-438-381-3289", "contact:website": "http://galanga.ca/", "cuisine": "thai", "ele": "47.0", "name": "Galanga Bistro Tha\u00ef", "name:fr": "Galanga Bistro Tha\u00ef", "opening_hours": "Mo-Fr 11:30-14:30,17:00-22:00; Sa-Su 17:00-22:00", "wheelchair": "no"}}, {"type": "node", "id": 827807724, "lat": 45.5083833, "lon": -73.6254272, "tags": {"addr:city": "Montr\u00e9al", "addr:housename": "Centre Commercial Wilderton", "addr:housenumber": "2871", "addr:postcode": "H3S 1P6", "addr:province": "Qu\u00e9bec", "addr:street": "Avenue Van Horne", "amenity": "pharmacy", "brand": "Pharmaprix", "brand:wikidata": "Q1820137", "brand:wikipedia": "fr:Pharmaprix", "designation": "PHARMAPRIX #0030", "dispensing": "yes", "healthcare": "pharmacy", "name": "Pharmaprix", "source": "http://www.pharmaprix.ca", "website": "https://www.pharmaprix.ca/en/store-locator/store/30", "website:en": "https://www.pharmaprix.ca/en/store-locator/store/30", "website:fr": "https://www.pharmaprix.ca/fr/store-locator/store/30"}}, {"type": "node", "id": 828140644, "lat": 45.5415595, "lon": -73.6077166, "tags": {"amenity": "restaurant", "name": "Ricci resto"}}, {"type": "node", "id": 828140667, "lat": 45.5416527, "lon": -73.6079947, "tags": {"addr:street": "Rue B\u00e9langer", "amenity": "restaurant"}}, {"type": "node", "id": 828140670, "lat": 45.5414664, "lon": -73.608169, "tags": {"amenity": "restaurant", "indoor_seating": "yes", "name": "La Chalupa", "opening_hours": "Th,Fr 17:00-21:00; Sa 10:00-21:00; Su 10:00-19:00; Mo-We off", "outdoor_seating": "no", "wheelchair": "no"}}, {"type": "node", "id": 828177107, "lat": 45.542466, "lon": -73.6072384, "tags": {"addr:city": "Montr\u00e9al", "addr:housenumber": "1251", "addr:postcode": "H2S 1J1", "addr:province": "QC", "addr:street": "Rue B\u00e9langer", "amenity": "restaurant", "cuisine": "sushi", "delivery": "yes", "indoor_seating": "yes", "level": "1", "name": "Futago Sushi", "note": "building:level=3", "opening_hours": "Mo-Sa 11:00-21:00, Su 16:00-21:00", "outdoor_seating": "no", "smoking": "no", "takeaway": "yes", "website": "https://www.restomontreal.ca/en/2701/Sushi-Futago"}}, {"type": "node", "id": 828177116, "lat": 45.5425615, "lon": -73.6071085, "tags": {"amenity": "restaurant", "name": "Pizzeria Casa Nova"}}, {"type": "node", "id": 844440594, "lat": 45.5184058, "lon": -73.5845376, "tags": {"addr:city": "Montr\u00e9al", "addr:housenumber": "4348", "addr:postcode": "H2W 1X3", "addr:province": "QC", "addr:street": "Rue Clark", "amenity": "restaurant", "cuisine": "coffee_shop", "name": "L'\u00c9tag\u00e8re Gourmande", "opening_hours": "Mo-Fr 08:00-19:00; Sa-Su 10:00-19:00", "phone": "+1-514-962-8134", "website": "http://etageregourmande.com/"}}, {"type": "node", "id": 864716908, "lat": 45.5074537, "lon": -73.5524515, "tags": {"amenity": "restaurant", "cuisine": "french", "name": "Chez Queux"}}, {"type": "node", "id": 864716920, "lat": 45.5065862, "lon": -73.5531502, "tags": {"addr:housenumber": "85", "addr:street": "Rue Saint-Paul Est", "amenity": "restaurant", "cuisine": "italian", "name": "Papillon"}}, {"type": "node", "id": 864716930, "lat": 45.5063931, "lon": -73.5528757, "tags": {"addr:city": "Montr\u00e9al", "addr:housenumber": "89", "addr:postcode": "H2Y 1J1", "addr:province": "Quebec", "addr:street": "Rue de la Commune Est", "amenity": "restaurant", "capacity": "100", "cuisine": "bistro", "delivery": "yes", "name": "Taverne Gaspar", "smoking": "no", "takeaway": "yes"}}, {"type": "node", "id": 864716952, "lat": 45.5059241, "lon": -73.5530861, "tags": {"addr:housenumber": "29", "addr:street": "Rue de la Commune Est", "amenity": "restaurant", "name": "Viva"}}, {"type": "node", "id": 864716960, "lat": 45.5060226, "lon": -73.5530471, "tags": {"amenity": "restaurant", "cuisine": "italian", "name": "Pizza Gourment Du Vieux Port"}}, {"type": "node", "id": 867695497, "lat": 45.5449872, "lon": -73.5611181, "tags": {"addr:housenumber": "3165", "addr:street": "Rue Rachel Est", "amenity": "restaurant", "check_date": "2023-07-16", "name": "Labarake", "source": "local_knowledge"}}, {"type": "node", "id": 868479771, "lat": 45.5046362, "lon": -73.5724408, "tags": {"addr:housenumber": "2075", "addr:street": "Boulevard Robert-Bourassa", "amenity": "cafe", "name": "Hinnawi Bros", "opening_hours": "Mo-Fr 07:00-19:00; Sa-Su 09:00-18:00"}}, {"type": "node", "id": 869340205, "lat": 45.5390362, "lon": -73.5611471, "tags": {"addr:city": "Montr\u00e9al", "addr:housenumber": "2800", "addr:postcode": "H2H 1S8", "addr:province": "QC", "addr:street": "Rue Rachel Est", "amenity": "restaurant", "brand": "Pizza Hut", "brand:wikidata": "Q191615", "brand:wikipedia": "en:Pizza Hut", "cuisine": "pizza", "name": "Pizza Hut", "opening_hours": "Mo-Th 11:00-22:00; Fr 11:00-20:00; Sa 12:00-22:00; Su 11:00-21:00", "phone": "+1-514-521-4551", "website": "https://www.pizzahut.ca/huts/ca-1/R29605/"}}, {"type": "node", "id": 870247054, "lat": 45.5218502, "lon": -73.5779776, "tags": {"amenity": "restaurant", "name": "Le Hachoir"}}, {"type": "node", "id": 870940088, "lat": 45.5039971, "lon": -73.5681385, "tags": {"amenity": "restaurant", "cuisine": "pizza", "name": "Il Foccolaio", "oven": "wood_fired"}}, {"type": "node", "id": 870960619, "lat": 45.504893, "lon": -73.570992, "tags": {"amenity": "restaurant", "created_by": "iLOE 1.8", "name": "Salade Bol", "wheelchair": "yes"}}, {"type": "node", "id": 874174378, "lat": 45.518206, "lon": -73.5698348, "tags": {"addr:city": "Montr\u00e9al", "addr:housenumber": "3635", "addr:postcode": "H2X 3L6", "addr:province": "QC", "addr:street": "Rue Saint-Denis", "addr:suburb": "Le Plateau-Mont-Royal", "amenity": "restaurant", "cuisine": "french", "internet_access": "wlan", "name": "Caf\u00e9 Cherrier", "old_name": "Caf\u00e9 des Artistes", "outdoor_seating": "yes", "phone": "+1 514 843 4308", "website": "http://www.cafecherrier.ca"}}, {"type": "node", "id": 882629859, "lat": 45.5179753, "lon": -73.5819873, "tags": {"amenity": "cafe", "name": "Caf\u00e9 Bistro"}}, {"type": "node", "id": 882652074, "lat": 45.505105, "lon": -73.57166, "tags": {"amenity": "cafe", "brand": "Starbucks", "brand:wikidata": "Q37158", "brand:wikipedia": "en:Starbucks", "cuisine": "coffee_shop", "name": "Starbucks", "official_name": "Starbucks Coffee", "takeaway": "yes", "wheelchair": "yes"}}, {"type": "node", "id": 890751640, "lat": 45.5730262, "lon": -73.5577368, "tags": {"amenity": "pharmacy", "brand": "Familiprix", "brand:wikidata": "Q3064881", "brand:wikipedia": "fr:Familiprix", "dispensing": "yes", "healthcare": "pharmacy", "name": "Familiprix"}}, {"type": "node", "id": 892659873, "lat": 45.5649758, "lon": -73.5925279, "tags": {"amenity": "restaurant", "check_date:opening_hours": "2022-08-04", "cuisine": "pizza", "name": "Caf\u00e9 5 juillet", "opening_hours:signed": "no"}}, {"type": "node", "id": 892659876, "lat": 45.5667643, "lon": -73.5889863, "tags": {"amenity": "pharmacy", "brand": "Jean Coutu", "brand:wikidata": "Q3117457", "brand:wikipedia": "fr:Groupe Jean Coutu", "healthcare": "pharmacy", "name": "Jean Coutu"}}, {"type": "node", "id": 892659877, "lat": 45.5673991, "lon": -73.5892841, "tags": {"amenity": "cafe", "brand": "Tim Hortons", "brand:wikidata": "Q175106", "brand:wikipedia": "en:Tim Hortons", "cuisine": "coffee_shop", "internet_access": "wlan", "internet_access:fee": "no", "name": "Tim Hortons", "takeaway": "yes"}}, {"type": "node", "id": 894450946, "lat": 45.518163, "lon": -73.5697323, "tags": {"addr:housenumber": "3625", "addr:street": "Rue Saint-Denis", "amenity": "restaurant", "description": "R\u00f4tisserie", "name": "Pied Poule"}}, {"type": "node", "id": 911933854, "lat": 45.5423382, "lon": -73.6123711, "tags": {"addr:city": "Montr\u00e9al", "addr:housenumber": "1025", "addr:province": "QC", "addr:street": "Rue Jean-Talon Est", "amenity": "pharmacy", "brand": "Pharmaprix", "brand:wikidata": "Q1820137", "brand:wikipedia": "fr:Pharmaprix", "healthcare": "pharmacy", "name": "Pharmaprix", "opening_hours": "Mo-Fr 08:00-22:00; Sa,Su 09:00-22:00", "website": "https://www.pharmaprix.ca/en/store-locator/store/1823", "website:en": "https://www.pharmaprix.ca/en/store-locator/store/1823", "website:fr": "https://www.pharmaprix.ca/fr/store-locator/store/1823", "wheelchair": "yes"}}, {"type": "node", "id": 913885810, "lat": 45.4847791, "lon": -73.5799051, "tags": {"addr:housenumber": "755", "addr:street": "Avenue Atwater", "amenity": "restaurant", "cuisine": "caribbean", "name": "Cabane Kreyol"}}, {"type": "node", "id": 926984561, "lat": 45.5070385, "lon": -73.5760144, "tags": {"addr:housenumber": "625", "addr:street": "Rue Milton", "amenity": "restaurant", "cuisine": "pizza", "name": "McGill Pizza", "wheelchair": "limited"}}, {"type": "node", "id": 931785624, "lat": 45.5171814, "lon": -73.5679304, "tags": {"amenity": "restaurant", "cuisine": "tibetan", "name": "Shambala"}}, {"type": "node", "id": 931785627, "lat": 45.5171556, "lon": -73.5678637, "tags": {"amenity": "restaurant", "cuisine": "african", "name": "Abiata"}}, {"type": "node", "id": 931785629, "lat": 45.5172112, "lon": -73.5678994, "tags": {"amenity": "restaurant", "cuisine": "korean", "name": "5000ans"}}, {"type": "node", "id": 931787535, "lat": 45.5190729, "lon": -73.5723344, "tags": {"amenity": "restaurant", "cuisine": "sushi", "name": "Higuma"}}, {"type": "node", "id": 931791953, "lat": 45.5177311, "lon": -73.5687366, "tags": {"amenity": "restaurant", "name": "Restaurant de l\u2019ITHQ", "wheelchair": "yes"}}, {"type": "node", "id": 934203568, "lat": 45.5179762, "lon": -73.5693519, "tags": {"amenity": "cafe", "internet_access": "wlan", "name": "La petite cuill\u00e8re", "outdoor_seating": "yes", "website": "http://www.petitecuillere.com"}}, {"type": "node", "id": 934881660, "lat": 45.4991822, "lon": -73.5735117, "tags": {"amenity": "cafe", "brand": "Second Cup", "brand:wikidata": "Q862180", "brand:wikipedia": "en:Second Cup", "cuisine": "coffee_shop", "name": "Second Cup", "takeaway": "yes", "wheelchair": "yes"}}, {"type": "node", "id": 936010440, "lat": 45.5072463, "lon": -73.5758087, "tags": {"addr:housenumber": "545", "addr:street": "Rue Milton", "amenity": "restaurant", "diet:vegan": "only", "name": "Lola Rosa", "opening_hours": "Mo-Su 11:30-21:30", "phone": "+1-514-287-9337", "website": "http://lola-rosa.ca/", "wheelchair": "yes"}}, {"type": "node", "id": 936118432, "lat": 45.5066792, "lon": -73.5530729, "tags": {"amenity": "restaurant", "brand": "3 Brasseurs", "brand:wikidata": "Q3230326", "cuisine": "burger;pizza;seafood", "microbrewery": "yes", "name": "3 Brewers", "name:fr": "3 Brasseurs", "official_name": "Les 3 Brasseurs"}}, {"type": "node", "id": 936118433, "lat": 45.5020131, "lon": -73.570739, "tags": {"addr:housenumber": "732", "addr:street": "Sainte-Catherine O", "amenity": "restaurant", "brand": "3 Brasseurs", "brand:wikidata": "Q3230326", "cuisine": "burger;pizza;seafood", "microbrewery": "yes", "name": "3 Brewers", "name:fr": "3 Brasseurs", "official_name": "Les 3 Brasseurs", "opening_hours": "Su-Th 11:30-23:00; Fr,Sa 11:30-24:00", "wheelchair": "limited"}}, {"type": "node", "id": 936979474, "lat": 45.5053767, "lon": -73.5729096, "tags": {"addr:housenumber": "626", "addr:street": "Rue Sherbrooke Ouest", "amenity": "cafe", "internet_access": "wlan", "name": "Java u", "opening_hours": "Mo-Th 07:00-21:00; Fr 07:00-20:00; Sa-Su 08:00-20:00"}}, {"type": "node", "id": 936979479, "lat": 45.5026391, "lon": -73.5552166, "tags": {"addr:city": "Montr\u00e9al", "addr:housenumber": "200", "addr:postcode": "H2Y 1Z9", "addr:province": "Qu\u00e9bec", "addr:street": "Rue Saint-Paul Ouest", "amenity": "restaurant", "cuisine": "polish", "name": "Stash Caf\u00e9", "opening_hours:covid19": "off", "phone": "+1 514 845-6611", "website": "https://restaurantstashcafe.ca/"}}, {"type": "node", "id": 936979485, "lat": 45.5025357, "lon": -73.5550301, "tags": {"amenity": "restaurant", "cuisine": "portuguese", "name": "Porto Mar", "website": "http://www.quaiouest.com"}}, {"type": "node", "id": 937557932, "lat": 45.5042188, "lon": -73.5543871, "tags": {"addr:city": "Montr\u00e9al", "addr:housenumber": "100", "addr:postcode": "H2Y 1Z5", "addr:province": "Quebec", "addr:street": "Rue Saint-Paul Ouest", "amenity": "restaurant", "capacity": "120", "cuisine": "french", "name": "Verses Restaurant", "phone": "+1-514-788-4000", "smoking": "no", "takeaway": "yes", "website": "http://www.versesrestaurant.com"}}, {"type": "node", "id": 940485919, "lat": 45.5005382, "lon": -73.5674462, "tags": {"amenity": "pharmacy", "brand": "Uniprix", "brand:wikidata": "Q683265", "brand:wikipedia": "fr:Uniprix (pharmacies)", "healthcare": "pharmacy", "name": "Uniprix", "wheelchair": "yes"}}, {"type": "node", "id": 942874457, "lat": 45.5452307, "lon": -73.544586, "tags": {"addr:city": "Montreal", "addr:housenumber": "3606", "addr:postcode": "H1W 1R7", "addr:province": "QC", "addr:street": "Rue Ontario Est", "addr:suburb": "Mercier-Hochelaga-Maisonneuve", "amenity": "cafe", "check_date": "2023-03-04", "cuisine": "coffee_shop;pizza;american;international", "diet:halal": "no", "diet:kosher": "no", "diet:vegan": "yes", "diet:vegetarian": "yes", "indoor_seating": "yes", "internet_access": "wlan", "internet_access:fee": "yes", "internet_access:ssid": "atomic neu", "name": "Atomic Caf\u00e9", "name:fr": "Atomic Caf\u00e9", "opening_hours": "Mo-Fr 08:00-23:59; Sa-Su 09:00-23:59", "outdoor_seating": "no", "payment:debit_cards": "yes", "phone": "+1 514 525 9601", "smoking": "no"}}, {"type": "node", "id": 964119609, "lat": 45.4938203, "lon": -73.5794979, "tags": {"amenity": "restaurant", "name": "Sushi Ste-Catherine", "wheelchair": "no"}}, {"type": "node", "id": 966730906, "lat": 45.506355, "lon": -73.554015, "tags": {"amenity": "restaurant", "name": "L'auberge Saint Gabriel"}}, {"type": "node", "id": 988366381, "lat": 45.5007486, "lon": -73.5719874, "tags": {"amenity": "pharmacy", "brand": "Jean Coutu", "brand:wikidata": "Q3117457", "brand:wikipedia": "fr:Groupe Jean Coutu", "dispensing": "yes", "healthcare": "pharmacy", "name": "Jean Coutu", "wheelchair": "yes"}}, {"type": "node", "id": 988422465, "lat": 45.462988, "lon": -73.5671749, "tags": {"amenity": "pharmacy", "brand": "Jean Coutu", "brand:wikidata": "Q3117457", "brand:wikipedia": "en:Jean Coutu Group", "dispensing": "yes", "healthcare": "pharmacy", "name": "Jean Coutu", "opening_hours": "Mo-Fr 09:00-22:00; Sa,Su 09:00-21:00", "wheelchair": "yes"}}, {"type": "node", "id": 988792368, "lat": 45.5030177, "lon": -73.5602958, "tags": {"amenity": "cafe", "name": "Java U"}}, {"type": "node", "id": 988792389, "lat": 45.5025925, "lon": -73.5611585, "tags": {"addr:housenumber": "405", "addr:postcode": "H2Z 2A3", "addr:street": "Rue Saint-Antoine Ouest", "amenity": "restaurant", "indoor_seating": "yes", "name": "Steak Frites", "opening_hours": "Su,Mo 16:30-21:00; Tu-Fr 11:30-21:00; Sa 16:30-22:00", "outdoor_seating": "no", "wheelchair": "yes"}}, {"type": "node", "id": 989707334, "lat": 45.4793961, "lon": -73.5816438, "tags": {"amenity": "pharmacy", "brand": "Jean Coutu", "brand:wikidata": "Q3117457", "brand:wikipedia": "en:Jean Coutu Group", "dispensing": "yes", "healthcare": "pharmacy", "name": "Jean Coutu"}}, {"type": "node", "id": 989707335, "lat": 45.4611966, "lon": -73.5669669, "tags": {"addr:city": "Montr\u00e9a", "addr:housenumber": "4260", "addr:street": "Rue Wellington", "amenity": "pharmacy", "atm": "yes", "brand": "Pharmaprix", "brand:wikidata": "Q1820137", "brand:wikipedia": "fr:Pharmaprix", "dispensing": "yes", "drive_through": "no", "healthcare": "pharmacy", "internet_access": "no", "name": "Pharmaprix", "opening_hours": "Mo-Fr 09:00-22:00; Sa,Su 09:00-21:00", "payment:interac": "yes", "payment:mastercard": "yes", "payment:visa": "yes", "source": "Local_knowledge", "website": "https://www.pharmaprix.ca/en/store-locator/store/4", "website:en": "https://www.pharmaprix.ca/en/store-locator/store/4", "website:fr": "https://www.pharmaprix.ca/fr/store-locator/store/4", "wheelchair": "yes"}}, {"type": "node", "id": 989707338, "lat": 45.4554155, "lon": -73.5718056, "tags": {"amenity": "pharmacy", "brand": "Jean Coutu", "brand:wikidata": "Q3117457", "brand:wikipedia": "en:Jean Coutu Group", "dispensing": "yes", "healthcare": "pharmacy", "name": "Jean Coutu", "opening_hours": "Mo-Fr 08:00-22:00, Sa,Su 09:00-21:00"}}, {"type": "node", "id": 998497005, "lat": 45.4496049, "lon": -73.6101566}, {"type": "node", "id": 998497011, "lat": 45.4496512, "lon": -73.61033, "tags": {"entrance": "yes"}}, {"type": "node", "id": 998497018, "lat": 45.449718, "lon": -73.6104305}, {"type": "node", "id": 998497023, "lat": 45.4499043, "lon": -73.6102665}, {"type": "node", "id": 998497028, "lat": 45.4497656, "lon": -73.6100187}, {"type": "node", "id": 998748014, "lat": 45.4959818, "lon": -73.5796559, "tags": {"addr:housenumber": "2081", "addr:street": "Rue Guy", "amenity": "cafe", "brand": "Tim Hortons", "brand:wikidata": "Q175106", "cuisine": "coffee_shop", "internet_access": "wlan", "internet_access:fee": "yes", "name": "Tim Hortons", "takeaway": "yes", "wheelchair": "yes"}}, {"type": "node", "id": 998748019, "lat": 45.4957981, "lon": -73.5790314, "tags": {"addr:housenumber": "1455", "addr:province": "QC", "addr:street": "Rue Guy", "amenity": "cafe", "name": "Java U", "wheelchair": "yes"}}, {"type": "node", "id": 1013478502, "lat": 45.5406532, "lon": -73.5546055, "tags": {"amenity": "restaurant", "name": "R\u00f4tisserie Au Coq"}}, {"type": "node", "id": 1013478509, "lat": 45.542025, "lon": -73.5575974, "tags": {"amenity": "restaurant", "indoor_seating": "yes", "name": "Miami", "opening_hours": "24/7", "outdoor_seating": "yes", "wheelchair": "yes"}}, {"type": "node", "id": 1016199233, "lat": 45.5088269, "lon": -73.5514282}, {"type": "node", "id": 1016199622, "lat": 45.5088836, "lon": -73.5516719}, {"type": "node", "id": 1016199628, "lat": 45.5079483, "lon": -73.5526579, "tags": {"addr:city": "Montr\u00e9al", "addr:country": "CA", "addr:housenumber": "407", "addr:postcode": "H2Y 3B1", "addr:province": "Qu\u00e9bec", "addr:street": "Place Jacques-Cartier", "amenity": "restaurant", "cuisine": "pizza;burger;sandwich", "diet:gluten_free": "yes", "diet:vegetarian": "yes", "email": "info@jardinnelson.com", "name": "Jardin Nelson", "opening_hours": "We,Th,Su 11:30-21:30; Fr 11:30-22:30; Sa 11:30-22:00", "payment:cash": "yes", "payment:debit_cards": "yes", "payment:mastercard": "yes", "payment:visa": "yes", "phone": "+1 514 861-5731", "website": "https://jardinnelson.com/"}}, {"type": "node", "id": 1018669756, "lat": 45.5652958, "lon": -73.5230192}, {"type": "node", "id": 1018669785, "lat": 45.5651566, "lon": -73.5228058}, {"type": "node", "id": 1018669791, "lat": 45.5651797, "lon": -73.5229415}, {"type": "node", "id": 1018669811, "lat": 45.5652843, "lon": -73.5230867}, {"type": "node", "id": 1018669851, "lat": 45.5651928, "lon": -73.5229361}, {"type": "node", "id": 1018669924, "lat": 45.5652537, "lon": -73.5227663}, {"type": "node", "id": 1018670057, "lat": 45.5652312, "lon": -73.5231038}, {"type": "node", "id": 1036377064, "lat": 45.5559083, "lon": -73.5572162}, {"type": "node", "id": 1036377065, "lat": 45.5558813, "lon": -73.5574149}, {"type": "node", "id": 1036377067, "lat": 45.5561891, "lon": -73.5570402}, {"type": "node", "id": 1036377068, "lat": 45.5561668, "lon": -73.5572359}, {"type": "node", "id": 1036377071, "lat": 45.5561733, "lon": -73.5572572}, {"type": "node", "id": 1036377072, "lat": 45.5562425, "lon": -73.5572139}, {"type": "node", "id": 1037981682, "lat": 45.549465, "lon": -73.5420348, "tags": {"addr:city": "Montr\u00e9al", "addr:housenumber": "4005", "addr:postcode": "H1W 1T1", "addr:province": "QC", "addr:street": "Rue Ontario Est", "addr:suburb": "Mercier-Hochelaga-Maisonneuve", "amenity": "restaurant", "indoor_seating": "yes", "internet_access": "wlan", "name": "\u00c9tat Major", "outdoor_seating": "no", "phone": "+1-514-905-8288", "website": "https://www.restomontreal.ca/fr/7121/EtatMajor"}}, {"type": "node", "id": 1037981685, "lat": 45.5493195, "lon": -73.5416834, "tags": {"addr:city": "Montr\u00e9al", "addr:housenumber": "3982", "addr:province": "QC", "addr:street": "Rue Ontario Est", "amenity": "restaurant", "check_date:opening_hours": "2023-07-15", "cuisine": "deli", "diet:vegan": "no", "diet:vegetarian": "yes", "internet_access": "no", "name": "Gerry's Delicatessen", "opening_hours:signed": "no", "payment:debit_cards": "yes", "payment:mastercard": "yes", "payment:visa": "yes", "wheelchair": "yes"}}, {"type": "node", "id": 1037988139, "lat": 45.5495294, "lon": -73.5583377, "tags": {"addr:housenumber": "3537", "addr:street": "Rue Rachel Est", "amenity": "restaurant", "check_date": "2023-07-15", "cuisine": "asian", "delivery": "no", "diet:vegetarian": "yes", "indoor_seating": "yes", "name": "Jardin des D\u00e9lices", "outdoor_seating": "yes", "phone": "+1-514-903-6203", "takeaway": "yes", "wheelchair": "yes"}}, {"type": "node", "id": 1039367353, "lat": 45.5236819, "lon": -73.5766234, "tags": {"amenity": "restaurant", "name": "L'anecdote", "opening_hours": "Sa 09:00-22:00; Su 09:00-21:00; Tu-Fr 11:00-22:00; Mo 11:00-21:00"}}, {"type": "node", "id": 1050577747, "lat": 45.5558728, "lon": -73.557313, "tags": {"amenity": "loading_dock"}}, {"type": "node", "id": 1055541330, "lat": 45.5429306, "lon": -73.5626721, "tags": {"addr:housenumber": "4100", "addr:postcode": "H1Y 1N6", "addr:province": "QC", "addr:street": "Rue Andr\u00e9-Laurendeau", "addr:suburb": "Rosemont-Petite-Patrie", "amenity": "restaurant", "internet_access": "wlan", "internet_access:fee": "no", "internet_access:operator": "\u00cele Sans Fil", "name": "Bistro Part Ici", "opening_hours": "Tu-Fr 07:00-02:00; Sa-Su 21:00-02:00", "phone": "+1 514 526 7278", "website": "www.bistropartici.ca"}}, {"type": "node", "id": 1056623204, "lat": 45.5414652, "lon": -73.5606578, "tags": {"addr:housenumber": "2967", "addr:street": "Rue Sherbrooke Est", "amenity": "restaurant", "cuisine": "sushi", "name": "Nori Sushi", "opening_hours": "We-Su 16:00-21:00", "phone": "+1 514 527-0000", "website": "https://www.norisushi.ca"}}, {"type": "node", "id": 1057464632, "lat": 45.505377, "lon": -73.567382, "tags": {"amenity": "pharmacy", "brand": "Pharmaprix", "brand:wikidata": "Q1820137", "brand:wikipedia": "en:Shoppers Drug Mart", "healthcare": "pharmacy", "name": "Pharmaprix", "opening_hours": "Mo-Fr 08:00-22:00; Sa 09:00-22:00; Su 10:00-22:00", "website": "https://www.pharmaprix.ca/en/store-locator/store/45", "website:en": "https://www.pharmaprix.ca/en/store-locator/store/45", "website:fr": "https://www.pharmaprix.ca/fr/store-locator/store/45", "wheelchair": "yes"}}, {"type": "node", "id": 1057471110, "lat": 45.50698, "lon": -73.5661567, "tags": {"addr:housenumber": "262", "addr:street": "Rue Sainte-Catherine Ouest", "amenity": "cafe", "cuisine": "coffee_shop", "internet_access": "wlan", "internet_access:fee": "no", "name": "Columbus Caf\u00e9 & Co", "outdoor_seating": "yes", "takeaway": "yes", "website": "https://www.columbuscafe.com", "wheelchair": "yes"}}, {"type": "node", "id": 1057471230, "lat": 45.507302, "lon": -73.565653, "tags": {"addr:housenumber": "190", "addr:street": "Rue Sainte-Catherine Ouest", "amenity": "restaurant", "name": "Eggspectation", "opening_hours": "Mo-Su 07:00-16:00; Th-Sa 07:00-20:00", "phone": "+1 514 288-6448", "website": "https://www.eggspectation.ca/complexe-desjardins/", "wheelchair": "yes"}}, {"type": "node", "id": 1057471381, "lat": 45.507375, "lon": -73.565492, "tags": {"amenity": "restaurant", "name": "Baton Rouge", "wheelchair": "yes"}}, {"type": "node", "id": 1060172688, "lat": 45.5086217, "lon": -73.5714755, "tags": {"amenity": "pharmacy", "brand": "Jean Coutu", "brand:wikidata": "Q3117457", "brand:wikipedia": "en:Jean Coutu Group", "check_date": "2023-09-22", "healthcare": "pharmacy", "name": "Jean Coutu", "wheelchair": "yes"}}, {"type": "node", "id": 1070167384, "lat": 45.5508574, "lon": -73.573409, "tags": {"amenity": "pharmacy", "brand": "Jean Coutu", "brand:wikidata": "Q3117457", "dispensing": "yes", "healthcare": "pharmacy", "name": "Jean Coutu", "opening_hours": "Mo-Fr 09:00-21:00; Sa,Su 09:00-19:00"}}, {"type": "node", "id": 1087601449, "lat": 45.5425273, "lon": -73.5502255, "tags": {"amenity": "restaurant", "cuisine": "mexican", "diet:vegan": "yes", "diet:vegetarian": "yes", "indoor_seating": "yes", "name": "Caf\u00e9 Tex-Mex", "opening_hours": "Mo-Su 17:00-21:00", "outdoor_seating": "no"}}, {"type": "node", "id": 1112495180, "lat": 45.4673514, "lon": -73.5392791, "tags": {"amenity": "cafe", "brand": "Tim Hortons", "brand:wikidata": "Q175106", "brand:wikipedia": "en:Tim Hortons", "cuisine": "coffee_shop", "name": "Tim Hortons", "takeaway": "yes"}}, {"type": "node", "id": 1113857777, "lat": 45.5265023, "lon": -73.5803618, "tags": {"addr:housenumber": "900", "addr:postcode": "H2J 1X2", "addr:province": "QC", "addr:street": "Avenue du Mont-Royal Est", "addr:suburb": "Le Plateau-Mont-Royal", "amenity": "cafe", "brand": "Second Cup", "brand:wikidata": "Q862180", "brand:wikipedia": "en:Second Cup", "check_date": "2023-05-29", "cuisine": "coffee_shop", "internet_access": "wlan", "internet_access:fee": "no", "name": "Second Cup", "opening_hours": "Mo-Fr 06:30-22:00; Sa-Su 07:30-22:00", "payment:mastercard": "yes", "payment:visa": "yes", "phone": "+1 514 528 1717", "smoking": "no", "takeaway": "yes", "wheelchair": "limited"}}, {"type": "node", "id": 1192154206, "lat": 45.494302, "lon": -73.578929, "tags": {"addr:city": "Montr\u00e9al", "addr:housenumber": "1657", "addr:postcode": "H3H 2H8", "addr:province": "QC", "addr:street": "Rue Sainte-Catherine Ouest", "amenity": "restaurant", "capacity": "150", "check_date": "2023-09-09", "cuisine": "mexican", "entrance": "yes", "name": "Les Trois amigos", "name:en": "3 Amigos", "phone": "+1-514-939-3329", "smoking": "no", "website": "http://www.3amigosrestaurant.com", "wheelchair": "limited"}}, {"type": "node", "id": 1192154241, "lat": 45.494018, "lon": -73.5793112, "tags": {"addr:housenumber": "1675", "addr:street": "Rue Sainte-Catherine Ouest", "amenity": "pharmacy", "automatic_door": "yes", "brand": "Jean Coutu", "brand:wikidata": "Q3117457", "brand:wikipedia": "en:Jean Coutu Group", "dispensing": "yes", "door": "sliding", "entrance": "yes", "healthcare": "pharmacy", "name": "Jean Coutu", "opening_hours": "Mo-Su 09:00-22:00", "wheelchair": "yes"}}, {"type": "node", "id": 1192154243, "lat": 45.4948318, "lon": -73.5777732, "tags": {"amenity": "cafe", "brand": "Second Cup", "brand:wikidata": "Q862180", "brand:wikipedia": "en:Second Cup", "cuisine": "coffee_shop", "name": "Second Cup", "takeaway": "yes", "wheelchair": "yes"}}, {"type": "node", "id": 1192154309, "lat": 45.4961727, "lon": -73.576448, "tags": {"amenity": "restaurant", "brand": "Scores", "brand:wikidata": "Q3476059", "cuisine": "chicken;barbecue", "name": "Scores"}}, {"type": "node", "id": 1192154324, "lat": 45.494505, "lon": -73.5781834, "tags": {"amenity": "cafe", "brand": "Starbucks", "brand:wikidata": "Q37158", "cuisine": "coffee_shop", "name": "Starbucks", "official_name": "Starbucks Coffee", "takeaway": "yes", "wheelchair": "yes"}}, {"type": "node", "id": 1199366699, "lat": 45.4970185, "lon": -73.5756395, "tags": {"amenity": "cafe", "level": "0", "name": "Columbus Caf\u00e9 & Co"}}, {"type": "node", "id": 1199379344, "lat": 45.4944492, "lon": -73.5760833, "tags": {"amenity": "restaurant", "automatic_door": "no", "cuisine": "chicken", "name": "Bar B Barn", "wheelchair": "no"}}, {"type": "node", "id": 1201288275, "lat": 45.4975169, "lon": -73.5767685, "tags": {"addr:housenumber": "1434", "addr:street": "Crescent Street", "amenity": "restaurant", "automatic_door": "no", "cuisine": "italian", "name": "Wienstein & Gavino's", "website": "https://www.wgmtl.com/", "wheelchair": "no"}}, {"type": "node", "id": 1201288314, "lat": 45.4975743, "lon": -73.576857, "tags": {"amenity": "restaurant", "automatic_door": "no", "cuisine": "pizza", "name": "California Pizza", "wheelchair": "no"}}, {"type": "node", "id": 1201303585, "lat": 45.495244, "lon": -73.5773225, "tags": {"addr:city": "Montr\u00e9al", "addr:housenumber": "1500", "addr:postcode": "H3G 1S8", "addr:street": "Rue Sainte-Catherine Ouest", "amenity": "pharmacy", "brand": "Pharmaprix", "brand:wikidata": "Q1820137", "brand:wikipedia": "en:Shoppers Drug Mart", "dispensing": "yes", "healthcare": "pharmacy", "name": "Pharmaprix", "opening_hours": "Mo-Su 08:00-24:00", "phone": "+1-514-933-4744", "website": "https://www.pharmaprix.ca/en/store-locator/store/42", "website:en": "https://www.pharmaprix.ca/en/store-locator/store/42", "website:fr": "https://www.pharmaprix.ca/fr/store-locator/store/42", "wheelchair": "yes"}}, {"type": "node", "id": 1201303591, "lat": 45.4944023, "lon": -73.5788086, "tags": {"addr:housenumber": "1651", "addr:street": "Rue Sainte_Catherine Ouest", "amenity": "restaurant", "automatic_door": "no", "cuisine": "bubble_tea", "door": "hinged", "entrance": "yes", "name": "Ocha Bubble Tea", "wheelchair": "yes"}}, {"type": "node", "id": 1202560995, "lat": 45.4973665, "lon": -73.5720519, "tags": {"addr:housenumber": "1221", "addr:street": "Boulevard Ren\u00e9-L\u00e9vesque Ouest", "amenity": "restaurant", "cuisine": "steak_house", "internet_access": "wlan", "name": "Bier Markt Montreal", "opening_hours": "Mo-We 11:30-24:00, Th 11:30-02:00, Fr,Sa 11:30-03:00, Su 11:30-24:00", "wheelchair": "no"}}, {"type": "node", "id": 1202561108, "lat": 45.4992991, "lon": -73.5760644, "tags": {"amenity": "restaurant", "name": "Le Pois Pench\u00e9", "wheelchair": "yes"}}, {"type": "node", "id": 1202561222, "lat": 45.4973581, "lon": -73.5757908, "tags": {"amenity": "restaurant", "automatic_door": "no", "cuisine": "crepe", "name": "Paris Cr\u00eape", "wheelchair": "yes"}}, {"type": "node", "id": 1231381513, "lat": 45.4985268, "lon": -73.5795792, "tags": {"addr:housenumber": "1384", "addr:postcode": "H3G 2E8", "addr:street": "Rue Sherbrooke Ouest", "amenity": "cafe", "name": "Le caf\u00e9 des beaux-arts", "step_count": "0", "wheelchair": "yes"}}, {"type": "node", "id": 1231398324, "lat": 45.4976921, "lon": -73.5783562, "tags": {"addr:housenumber": "2045", "addr:street": "Rue Bishop", "amenity": "restaurant", "cuisine": "sushi", "name": "Toro Sushi", "step_count": "4", "wheelchair": "no"}}, {"type": "node", "id": 1231398349, "lat": 45.4979195, "lon": -73.5789216, "tags": {"addr:street": "Rue Bishop", "amenity": "restaurant", "cuisine": "korean", "name": "Tianxia", "step_count": "8", "wheelchair": "no"}}, {"type": "node", "id": 1232026780, "lat": 45.4970237, "lon": -73.5809582, "tags": {"addr:housenumber": "1504", "addr:postcode": "H3G 1L3", "addr:street": "Rue Sherbrooke Ouest", "amenity": "restaurant", "name": "Bice Restaurant"}}, {"type": "node", "id": 1232026883, "lat": 45.4986885, "lon": -73.5785469, "tags": {"addr:housenumber": "2171", "addr:postcode": "H3G 2C1", "addr:street": "Rue Crescent", "amenity": "restaurant", "cuisine": "french", "name": "Troika"}}, {"type": "node", "id": 1232026955, "lat": 45.4986283, "lon": -73.5783698, "tags": {"addr:housenumber": "2137", "addr:postcode": "H3G 2C1", "addr:street": "Rue Crescent", "amenity": "restaurant", "cuisine": "french", "name": "L'Autre Saison", "wheelchair": "no"}}, {"type": "node", "id": 1232026967, "lat": 45.4982373, "lon": -73.5782196, "tags": {"addr:housenumber": "2100", "addr:street": "Rue Crescent", "amenity": "restaurant", "cuisine": "international", "name": "L'Acad\u00e9mie", "wheelchair": "no"}}, {"type": "node", "id": 1232026989, "lat": 45.4983266, "lon": -73.5777757, "tags": {"addr:housenumber": "2045", "addr:postcode": "H3G 2C1", "addr:street": "Rue Crescent", "amenity": "cafe", "brand": "Nespresso", "brand:wikidata": "Q301301", "brand:wikipedia": "en:Nespresso", "name": "Nespresso", "shop": "coffee", "wheelchair": "limited"}}, {"type": "node", "id": 1237960420, "lat": 45.4990103, "lon": -73.5731543, "tags": {"addr:housenumber": "1264", "addr:street": "Rue Stanley", "amenity": "restaurant", "cuisine": "italian", "name": "Restaurant Santa Lucia", "phone": "+1-514-393-8623"}}, {"type": "node", "id": 1237960466, "lat": 45.4982743, "lon": -73.5737766, "tags": {"amenity": "restaurant", "cuisine": "asian", "name": "Cit\u00e9s d'Asie"}}, {"type": "node", "id": 1237960501, "lat": 45.4988961, "lon": -73.5729384, "tags": {"amenity": "restaurant", "cuisine": "vietnamese", "name": "Chez Lien Plus"}}, {"type": "node", "id": 1246437091, "lat": 45.5560982, "lon": -73.557279}, {"type": "node", "id": 1258972131, "lat": 45.553536, "lon": -73.6191165, "tags": {"amenity": "cafe", "brand": "Tim Hortons", "brand:wikidata": "Q175106", "cuisine": "coffee_shop", "name": "Tim Hortons", "takeaway": "yes"}}, {"type": "node", "id": 1263357123, "lat": 45.4960824, "lon": -73.5777864, "tags": {"addr:housenumber": "1432", "addr:street": "Rue Mackay", "amenity": "cafe", "email": "info@cafemyriade.com", "name": "Cafe Myriade", "opening_hours": "Mo-Fr 07:30-19:00; Sa,Su 09:00-19:00", "phone": "+1-514-939-1717", "website": "http://www.cafemyriade.com/wp/mackay/", "wheelchair": "yes"}}, {"type": "node", "id": 1270300326, "lat": 45.5155243, "lon": -73.5646563, "tags": {"addr:city": "Montr\u00e9al", "addr:housenumber": "1720", "addr:postcode": "H2X 3K6", "addr:province": "QC", "addr:street": "Rue Saint-Denis", "air_conditioning": "yes", "amenity": "restaurant", "check_date": "2023-03-13", "delivery": "yes", "diet:vegan": "only", "diet:vegetarian": "yes", "email": "stdenis@restovego.ca", "internet_access": "wlan", "name": "Resto V\u00e9go", "opening_hours": "Su-We 11:00-22:00; Th 11:00-22:30; Fr-Sa 11:00-23:00", "opening_hours:covid19": "Su-Mo 11:00-21:00; Tu-Sa 11:00-21:30", "outdoor_seating": "yes", "payment:interac": "yes", "payment:mastercard": "yes", "payment:visa": "yes", "phone": "+1-514-845-2627", "takeaway": "yes", "website": "https://www.restovego.ca/", "wheelchair": "no"}}, {"type": "node", "id": 1271378109, "lat": 45.518457, "lon": -73.5710862, "tags": {"addr:housenumber": "3706", "addr:postcode": "H2X 3L7", "addr:province": "QC", "addr:street": "Rue Saint-Denis", "addr:suburb": "Le Plateau-Mont-Royal", "amenity": "restaurant", "cuisine": "ethiopian", "fax": "+1-514-285-2304", "internet_access": "wlan", "name": "Le Nil Bleu", "phone": "+1-514-285-4628", "website": "www.nilbleu.ca"}}, {"type": "node", "id": 1271418874, "lat": 45.4974721, "lon": -73.5801931, "tags": {"amenity": "restaurant", "cuisine": "organic", "name": "Crudessence", "step_count": "6", "wheelchair": "no"}}, {"type": "node", "id": 1271418877, "lat": 45.4974156, "lon": -73.5801287, "tags": {"amenity": "restaurant", "name": "Riz en folie"}}, {"type": "node", "id": 1271672559, "lat": 45.501726, "lon": -73.570212, "tags": {"addr:housenumber": "1241", "addr:postcode": "H3B 5K4", "addr:street": "Avenue McGill-College", "amenity": "cafe", "name": "Java U Caf\u00e9", "wheelchair": "yes"}}, {"type": "node", "id": 1271672562, "lat": 45.5014441, "lon": -73.5705145, "tags": {"amenity": "cafe", "brand": "Caf\u00e9 D\u00e9p\u00f4t", "brand:wikidata": "Q64924449", "cuisine": "coffee_shop;cake;bagel;bistro", "name": "Caf\u00e9 D\u00e9p\u00f4t", "takeaway": "yes", "wheelchair": "yes"}}, {"type": "node", "id": 1271672564, "lat": 45.5009113, "lon": -73.5697477, "tags": {"amenity": "pharmacy", "brand": "Pharmaprix", "brand:wikidata": "Q1820137", "brand:wikipedia": "fr:Pharmaprix", "dispensing": "yes", "healthcare": "pharmacy", "name": "Pharmaprix", "website": "https://www.pharmaprix.ca/en/store-locator/store/1825", "website:en": "https://www.pharmaprix.ca/en/store-locator/store/1825", "website:fr": "https://www.pharmaprix.ca/fr/store-locator/store/1825", "wheelchair": "yes"}}, {"type": "node", "id": 1271672568, "lat": 45.5007647, "lon": -73.5691308, "tags": {"amenity": "cafe", "cuisine": "coffee_shop", "name": "Van Houtte", "operator": "Keurig Canada", "wheelchair": "yes"}}, {"type": "node", "id": 1271672571, "lat": 45.5017674, "lon": -73.5703053, "tags": {"amenity": "restaurant", "cuisine": "italian", "name": "Boccacinos", "wheelchair": "limited"}}, {"type": "node", "id": 1271672582, "lat": 45.5006443, "lon": -73.5692327, "tags": {"amenity": "cafe", "cuisine": "dessert", "name": "Brioche dor\u00e9", "shop": "bakery", "wheelchair": "yes"}}, {"type": "node", "id": 1278623199, "lat": 45.507945, "lon": -73.567699, "tags": {"amenity": "restaurant", "cuisine": "sushi", "name": "F bar", "opening_hours": "Mo-Fr 11:30-14:30, Mo-We 17:00-22:00, Th-Sa 17:00-23:00"}}, {"type": "node", "id": 1278632226, "lat": 45.5033877, "lon": -73.56653, "tags": {"amenity": "cafe", "name": "Caf\u00e9 supr\u00eame", "wheelchair": "yes"}}, {"type": "node", "id": 1278632230, "lat": 45.5029147, "lon": -73.5695344, "tags": {"amenity": "restaurant", "cuisine": "american", "name": "Bofinger", "website": "https://www.bofinger.ca/", "wheelchair": "no"}}, {"type": "node", "id": 1278632281, "lat": 45.5029402, "lon": -73.5668224, "tags": {"amenity": "cafe", "brand": "Tim Hortons", "brand:wikidata": "Q175106", "brand:wikipedia": "en:Tim Hortons", "cuisine": "coffee_shop", "internet_access": "wlan", "internet_access:fee": "yes", "name": "Tim Hortons", "takeaway": "yes", "wheelchair": "limited"}}, {"type": "node", "id": 1281694745, "lat": 45.5015799, "lon": -73.5708526, "tags": {"amenity": "restaurant", "name": "Bistro le Cap Vert"}}, {"type": "node", "id": 1281694815, "lat": 45.5040706, "lon": -73.5682724, "tags": {"amenity": "cafe", "brand": "Second Cup", "brand:wikidata": "Q862180", "brand:wikipedia": "en:Second Cup", "cuisine": "coffee_shop", "name": "Second Cup", "takeaway": "yes"}}, {"type": "node", "id": 1281694833, "lat": 45.5039801, "lon": -73.568077, "tags": {"amenity": "restaurant", "cuisine": "vietnamese", "name": "Pho Li Quoc Su"}}, {"type": "node", "id": 1281694896, "lat": 45.5032684, "lon": -73.567349, "tags": {"amenity": "restaurant", "name": "Jatoba"}}, {"type": "node", "id": 1281695006, "lat": 45.5035896, "lon": -73.5672613, "tags": {"amenity": "restaurant", "cuisine": "japanese", "name": "Le Carre"}}, {"type": "node", "id": 1282761406, "lat": 45.5059225, "lon": -73.5762818, "tags": {"amenity": "restaurant", "cuisine": "cafeteria", "name": "McConnell Cafe", "wheelchair": "yes"}}, {"type": "node", "id": 1287009159, "lat": 45.5235186, "lon": -73.5823578, "tags": {"addr:housenumber": "4458", "addr:street": "Rue Saint-Denis", "amenity": "restaurant", "check_date": "2023-03-04", "cuisine": "ice_cream", "name": "Cre\u0302merie Meu Meu", "payment:mastercard": "yes", "payment:visa": "yes"}}, {"type": "node", "id": 1290834879, "lat": 45.5005463, "lon": -73.5716378, "tags": {"addr:city": "Montr\u00e9al", "addr:housenumber": "1249", "addr:postcode": "H3B 2V5", "addr:province": "QC", "addr:street": "Rue Metcalfe", "amenity": "restaurant", "capacity": "75", "cuisine": "deli", "indoor_seating": "yes", "name": "Dunn's", "opening_hours": "24/7", "outdoor_seating": "yes", "phone": "+1-514-395-1927", "smoking": "no", "website": "https://www.dunnsfamous.com/", "wheelchair": "limited", "wikidata": "Q3041361", "wikipedia": "fr:Dunn's Famous"}}, {"type": "node", "id": 1290834973, "lat": 45.499439, "lon": -73.5719972, "tags": {"amenity": "restaurant", "name": "Caf\u00e9 R\u00e9publique"}}, {"type": "node", "id": 1290835014, "lat": 45.4992134, "lon": -73.5715949, "tags": {"amenity": "restaurant", "cuisine": "chinese", "name": "Le Piment Rouge", "wheelchair": "limited"}}, {"type": "node", "id": 1290835215, "lat": 45.4990489, "lon": -73.5712569, "tags": {"amenity": "restaurant", "cuisine": "spanish", "name": "El Diablo Rojo", "wheelchair": "limited"}}, {"type": "node", "id": 1299794340, "lat": 45.5345727, "lon": -73.5513672}, {"type": "node", "id": 1299794438, "lat": 45.5344206, "lon": -73.551467}, {"type": "node", "id": 1299794483, "lat": 45.5345179, "lon": -73.5512134}, {"type": "node", "id": 1299794509, "lat": 45.5343763, "lon": -73.551308}, {"type": "node", "id": 1302746246, "lat": 45.5432197, "lon": -73.5893299, "tags": {"addr:street": "Boulevard rosemont", "amenity": "pharmacy", "brand": "Proxim", "brand:wikidata": "Q3408523", "brand:wikipedia": "en:Proxim", "dispensing": "yes", "healthcare": "pharmacy", "name": "Proxim"}}, {"type": "node", "id": 1302771024, "lat": 45.5409566, "lon": -73.5879575, "tags": {"addr:housenumber": "1963", "addr:street": "des carrieres", "amenity": "cafe", "cuisine": "sandwich", "name": "Magr\u00e9bia"}}, {"type": "node", "id": 1302772180, "lat": 45.5000018, "lon": -73.568571, "tags": {"amenity": "restaurant", "cuisine": "french", "name": "Le Montr\u00e9alais Bistrot-bar", "wheelchair": "yes"}}, {"type": "node", "id": 1302772186, "lat": 45.5047298, "lon": -73.5647435, "tags": {"amenity": "restaurant", "name": "Caf\u00e9 Bistro La Tour"}}, {"type": "node", "id": 1302772193, "lat": 45.5049591, "lon": -73.5645691, "tags": {"amenity": "restaurant", "cuisine": "chinese", "name": "Yu Hang (L'Envol de Chine)"}}, {"type": "node", "id": 1302772197, "lat": 45.5024157, "lon": -73.5671414, "tags": {"amenity": "cafe", "name": "Presse Cafe", "wheelchair": "yes"}}, {"type": "node", "id": 1302772204, "lat": 45.5001955, "lon": -73.5685737, "tags": {"amenity": "restaurant", "cuisine": "french", "name": "The Beaver Club", "wheelchair": "yes"}}, {"type": "node", "id": 1302772209, "lat": 45.504273, "lon": -73.5651163, "tags": {"amenity": "cafe", "level": "0", "name": "Copper Branch", "shop": "clothes"}}, {"type": "node", "id": 1302772214, "lat": 45.5038181, "lon": -73.5661463, "tags": {"amenity": "restaurant", "name": "Bistro Imagination"}}, {"type": "node", "id": 1302772216, "lat": 45.5014795, "lon": -73.5673345, "tags": {"amenity": "restaurant", "cuisine": "steak_house", "name": "Vargas", "wheelchair": "yes"}}, {"type": "node", "id": 1302772219, "lat": 45.5005301, "lon": -73.5689733, "tags": {"addr:city": "Montr\u00e9al", "addr:housenumber": "5", "addr:postcode": "H3B 2G2", "addr:province": "Quebec", "addr:street": "Place Ville Marie", "amenity": "restaurant", "branch": "Place Ville Marie", "brand": "The Keg", "brand:wikidata": "Q7744066", "cuisine": "steak_house", "indoor_seating": "yes", "name": "The Keg", "opening_hours": "Mo-We 10:00-24:00, Tu-Fr 11:00-01:00, Sa 16:00-01:00, Su 16:00-24:00", "outdoor_seating": "no", "phone": "+1-514-868-1999", "website": "https://thekeg.com/en/locations/place-ville-marie", "website:en": "https://thekeg.com/en/locations/place-ville-marie", "website:fr": "https://thekeg.com/fr/restaurants/place-ville-marie", "wheelchair": "yes"}}, {"type": "node", "id": 1307144657, "lat": 45.5000465, "lon": -73.5748464, "tags": {"amenity": "cafe", "name": "Caf\u00e9 Java U"}}, {"type": "node", "id": 1307144708, "lat": 45.500434, "lon": -73.5740597, "tags": {"amenity": "restaurant", "cuisine": "portuguese", "name": "Ferreira Caf\u00e9", "wheelchair": "yes"}}, {"type": "node", "id": 1307144733, "lat": 45.5005449, "lon": -73.5742751, "tags": {"amenity": "restaurant", "name": "Alexandre", "wheelchair": "no"}}, {"type": "node", "id": 1307144790, "lat": 45.5006273, "lon": -73.5744358, "tags": {"amenity": "cafe", "name": "Caf\u00e9 Vasco Da Gama", "wheelchair": "no"}}, {"type": "node", "id": 1307398645, "lat": 45.5037689, "lon": -73.5573482, "tags": {"addr:city": "Montr\u00e9al", "addr:housenumber": "200", "addr:street": "Rue Notre-Dame Ouest", "amenity": "cafe", "name": "Caf\u00e9 Tommy", "opening_hours": "Mo-Su 08:00-20:00", "phone": "+1-514-903-8669"}}, {"type": "node", "id": 1307399314, "lat": 45.5081057, "lon": -73.5613885, "tags": {"addr:city": "Montr\u00e9al", "addr:housenumber": "1110", "addr:street": "Rue Clark", "amenity": "restaurant", "name": "Kanbai", "name:ko": "Kanbai \uc0ac\ucc9c\uc694\ub9ac", "source": "NRCan-CanVec-7.0"}}, {"type": "node", "id": 1307401250, "lat": 45.5095826, "lon": -73.5513412, "tags": {"addr:city": "Montr\u00e9al", "addr:housenumber": "350", "addr:street": "Rue Saint-Paul Est", "amenity": "cafe", "name": "Caf\u00e9 Des Arts", "source": "NRCan-CanVec-7.0"}}, {"type": "node", "id": 1307401525, "lat": 45.5012166, "lon": -73.5564042, "tags": {"addr:city": "Montr\u00e9al", "addr:housenumber": "351", "addr:postcode": "H2Y 2A7", "addr:street": "Rue Saint-Paul Ouest", "amenity": "restaurant", "diet:vegetarian": "yes", "name": "Olive et Gourmando", "opening_hours": "Mo-Fr 08:00-17:00; Sa, Su 08:00-18:00", "phone": "+1 514-350-1083", "website": "https://oliveetgourmando.com"}}, {"type": "node", "id": 1314138586, "lat": 45.5332075, "lon": -73.584161, "tags": {"addr:housenumber": "1309", "addr:postcode": "H2J 1H4", "addr:province": "QC", "addr:street": "Rue Laurier Est", "addr:suburb": "Le Plateau-Mont-Royal", "amenity": "restaurant", "check_date": "2023-08-04", "cuisine": "coffee_shop", "internet_access": "wlan", "internet_access:fee": "no", "internet_access:operator": "\u00cele Sans Fil", "name": "Lapin Press\u00e9 Inc", "opening_hours": "Mo-Fr 07:30-18:00, Su 09:00-17:00, Sa 08:30-18:00", "payment:credit_cards": "yes", "payment:debit_cards": "yes", "phone": "+1 514 903 3555", "takeaway": "yes", "wheelchair": "no"}}, {"type": "node", "id": 1315087435, "lat": 45.5258728, "lon": -73.5520126, "tags": {"amenity": "cafe", "brand": "Tim Hortons", "brand:wikidata": "Q175106", "brand:wikipedia": "en:Tim Hortons", "cuisine": "coffee_shop", "internet_access": "wlan", "internet_access:fee": "no", "name": "Tim Hortons", "takeaway": "yes"}}, {"type": "node", "id": 1329147319, "lat": 45.5335067, "lon": -73.5510849, "tags": {"amenity": "restaurant", "check_date": "2023-03-04", "name": "Restaurant Bercy", "payment:interac": "yes", "payment:mastercard": "yes", "payment:visa": "yes", "wheelchair": "yes"}}, {"type": "node", "id": 1333772125, "lat": 45.4443425, "lon": -73.6473171, "tags": {"amenity": "pharmacy", "brand": "Uniprix", "brand:wikidata": "Q683265", "brand:wikipedia": "fr:Uniprix (pharmacies)", "dispensing": "yes", "healthcare": "pharmacy", "name": "Uniprix"}}, {"type": "node", "id": 1333772132, "lat": 45.4421373, "lon": -73.6463576, "tags": {"addr:city": "Montr\u00e9al", "addr:housenumber": "5", "addr:province": "QC", "addr:street": "Avenue Saint-Pierre", "amenity": "cafe", "brand": "Tim Hortons", "brand:wikidata": "Q175106", "brand:wikipedia": "en:Tim Hortons", "cuisine": "coffee_shop", "internet_access": "wlan", "internet_access:fee": "no", "name": "Tim Hortons", "takeaway": "yes"}}, {"type": "node", "id": 1342813464, "lat": 45.5332532, "lon": -73.550768, "tags": {"addr:housenumber": "2600", "addr:postcode": "H2K 4K4", "addr:street": "Ontario E.", "amenity": "pharmacy", "brand": "Familiprix", "brand:wikidata": "Q3064881", "brand:wikipedia": "fr:Familiprix", "check_date": "2023-03-04", "dispensing": "yes", "healthcare": "pharmacy", "name": "Familiprix", "payment:interac": "yes", "payment:mastercard": "yes", "payment:visa": "yes", "website": "http://www.familiprix.com/SectionCorporative/Succursales/VotreSuccursale.aspx?idphweb=461&mode=selsucc", "wheelchair": "yes"}}, {"type": "node", "id": 1371199535, "lat": 45.5343841, "lon": -73.5729776, "tags": {"addr:housenumber": "1990", "addr:postcode": "H2H 1J4", "addr:street": "Mont-royal est", "amenity": "pharmacy", "brand": "Jean Coutu", "brand:wikidata": "Q3117457", "brand:wikipedia": "en:Jean Coutu Group", "check_date": "2022-12-30", "healthcare": "pharmacy", "name": "Jean Coutu", "opening_hours": "Mo-Sa 09:00-22:00; Su 10:00-22:00", "payment:mastercard": "yes", "payment:visa": "yes", "website": "https://www.jeancoutu.com/default.aspx?langType=3084", "wheelchair": "yes"}}, {"type": "node", "id": 1374812556, "lat": 45.5078171, "lon": -73.5694155, "tags": {"amenity": "cafe", "brand": "Caf\u00e9 D\u00e9p\u00f4t", "brand:wikidata": "Q64924449", "cuisine": "coffee_shop;cake;bagel;bistro", "name": "Caf\u00e9 D\u00e9p\u00f4t", "takeaway": "yes", "wheelchair": "yes"}}, {"type": "node", "id": 1391407968, "lat": 45.478649, "lon": -73.5688606, "tags": {"addr:city": "Montreal", "addr:housenumber": "2556", "addr:postcode": "H3K 1J8", "addr:province": "QC", "addr:street": "Rue Centre", "amenity": "restaurant", "cuisine": "indian", "name": "Spicebros Sud Ouest", "website": "https://www.spicebros.com/"}}, {"type": "node", "id": 1391407983, "lat": 45.4796506, "lon": -73.5676656, "tags": {"amenity": "restaurant", "name": "Chez Paul"}}, {"type": "node", "id": 1398030183, "lat": 45.5081543, "lon": -73.5650522, "tags": {"addr:city": "Montr\u00e9al", "addr:housenumber": "150", "addr:postcode": "H5B 2B8", "addr:street": "Rue Sainte-Catherine Ouest", "amenity": "cafe", "brand": "Caf\u00e9 D\u00e9p\u00f4t", "brand:wikidata": "Q64924449", "cuisine": "coffee_shop;cake;bagel;bistro", "drink:espresso": "served", "internet_access": "yes", "name": "Caf\u00e9 D\u00e9p\u00f4t", "phone": "+1-514-286-9598", "ref": "Loc# 214", "takeaway": "yes", "wheelchair": "yes"}}, {"type": "node", "id": 1420176890, "lat": 45.5321221, "lon": -73.6489173, "tags": {"amenity": "restaurant", "cuisine": "chicken", "name": "Roasters"}}, {"type": "node", "id": 1427593053, "lat": 45.4330268, "lon": -73.6304495, "tags": {"addr:city": "Montr\u00e9al", "addr:housenumber": "8371", "addr:postcode": "H8N 1Y4", "addr:province": "QC", "addr:street": "Newman", "amenity": "pharmacy", "brand": "Pharmaprix", "brand:wikidata": "Q1820137", "brand:wikipedia": "fr:Pharmaprix", "dispensing": "yes", "drive_through": "no", "healthcare": "pharmacy", "internet_access": "wlan", "internet_access:fee": "no", "name": "Pharmaprix", "opening_hours": "Mo-Fr 08:00-22:00; Sa-Su 09:00-22:00", "phone": "+1 514-595-8550", "website": "https://www.pharmaprix.ca/en/store-locator/store/79", "website:en": "https://www.pharmaprix.ca/en/store-locator/store/79", "website:fr": "https://www.pharmaprix.ca/fr/store-locator/store/79"}}, {"type": "node", "id": 1427593065, "lat": 45.4325148, "lon": -73.628712, "tags": {"amenity": "cafe", "brand": "Tim Hortons", "brand:wikidata": "Q175106", "brand:wikipedia": "en:Tim Hortons", "cuisine": "coffee_shop", "internet_access": "wlan", "internet_access:fee": "no", "name": "Tim Hortons", "takeaway": "yes"}}, {"type": "node", "id": 1427593075, "lat": 45.432847, "lon": -73.6352984, "tags": {"addr:housenumber": "2101", "addr:postcode": "H8N 1S2", "addr:street": "Avenue Dollard", "amenity": "restaurant", "cuisine": "sushi", "name": "Sushi Plus", "opening_hours": "Mo-Su 11:00-15:00,17:00-21:30", "phone": "+1 514-366-8666", "takeaway": "yes", "website": "https://sushiplus.ca/"}}, {"type": "node", "id": 1427593076, "lat": 45.4315675, "lon": -73.6311027, "tags": {"addr:housenumber": "8520", "addr:postcode": "H8N 1Y5", "addr:province": "QC", "addr:street": "Boulevard Newman", "addr:suburb": "LaSalle", "amenity": "restaurant", "brand": "Scores", "brand:wikidata": "Q3476059", "brand:wikipedia": "fr:Scores", "cuisine": "chicken;barbecue", "internet_access": "wlan", "internet_access:fee": "no", "name": "Scores", "phone": "+1 514 595 3535", "website": "https://www.scores.ca/"}}, {"type": "node", "id": 1427593081, "lat": 45.4319025, "lon": -73.630042, "tags": {"addr:city": "Lasalle", "addr:housenumber": "8460", "addr:postcode": "H8N 1Y5", "addr:province": "QC", "addr:street": "Boulevard Newman", "amenity": "cafe", "brand": "Starbucks", "brand:wikidata": "Q37158", "brand:wikipedia": "en:Starbucks", "cuisine": "coffee_shop", "delivery": "yes", "drive_through": "yes", "name": "Starbucks", "official_name": "Starbucks Coffee", "opening_hours": "Mo-Su 06:00-22:00", "outdoor_seating": "no", "phone": "+1 514-654-6255", "takeaway": "yes"}}, {"type": "node", "id": 1427593082, "lat": 45.4320135, "lon": -73.6317237, "tags": {"addr:city": "Lasalle", "addr:housenumber": "8481", "addr:postcode": "H8N 2Y7", "addr:province": "QC", "addr:street": "Boulevard Newman", "amenity": "cafe", "brand": "Tim Hortons", "brand:wikidata": "Q175106", "brand:wikipedia": "en:Tim Hortons", "cuisine": "coffee_shop", "delivery": "yes", "internet_access": "wlan", "internet_access:fee": "no", "name": "Tim Hortons", "opening_hours": "24/7", "outdoor_seating": "no", "phone": "+1 888-601-1616", "takeaway": "yes"}}, {"type": "node", "id": 1427593083, "lat": 45.4339305, "lon": -73.6287055, "tags": {"addr:housenumber": "8171", "addr:postcode": "H8N 1Y1", "addr:street": "Boulevard Newman", "amenity": "restaurant", "cuisine": "vietnamese", "name": "Chez Lien", "opening_hours": "Tu-Th 11:00-14:30,16:30-21:00; Fr 11:00-14:30,16:30-21:30; Su 16:30-21:30; Mo,Sa off", "payment:interac": "yes", "payment:mastercard": "yes", "payment:visa": "yes", "phone": "+1 514-364-0690"}}, {"type": "node", "id": 1429426113, "lat": 45.515097, "lon": -73.563143, "tags": {"amenity": "restaurant", "cuisine": "tapas", "name": "Confusion Tapas du Monde"}}, {"type": "node", "id": 1429426206, "lat": 45.5159918, "lon": -73.5597705, "tags": {"amenity": "cafe", "brand": "Caf\u00e9 D\u00e9p\u00f4t", "brand:wikidata": "Q64924449", "cuisine": "coffee_shop;cake;bagel;bistro", "name": "Caf\u00e9 D\u00e9p\u00f4t", "takeaway": "yes"}}, {"type": "node", "id": 1429426231, "lat": 45.515026, "lon": -73.562973, "tags": {"addr:city": "Montr\u00e9al", "addr:housenumber": "1621", "addr:postcode": "H2X 3K3", "addr:province": "QC", "addr:street": "Rue Saint-Denis", "amenity": "restaurant", "cuisine": "mexican", "name": "3 Amigos", "outdoor_seating": "yes", "phone": "+1 514 987 6868", "source": "http://www.3amigosrestaurant.com/Nousjoindre.cfm", "website": "http://www.3amigosrestaurant.com/"}}, {"type": "node", "id": 1429426247, "lat": 45.5158571, "lon": -73.5595172, "tags": {"amenity": "restaurant", "cuisine": "breakfast", "name": "Tutti Frutti"}}, {"type": "node", "id": 1429426308, "lat": 45.5148657, "lon": -73.5626621, "tags": {"amenity": "cafe", "brand": "Tim Hortons", "brand:wikidata": "Q175106", "brand:wikipedia": "en:Tim Hortons", "check_date": "2023-09-07", "cuisine": "coffee_shop", "internet_access": "wlan", "internet_access:fee": "yes", "name": "Tim Hortons", "payment:credit_cards": "yes", "takeaway": "yes"}}, {"type": "node", "id": 1429426316, "lat": 45.5147463, "lon": -73.5623858, "tags": {"amenity": "cafe", "check_date": "2023-09-07", "name": "Br\u00fblerie St-Denis", "payment:credit_cards": "yes"}}, {"type": "node", "id": 1429426343, "lat": 45.514703, "lon": -73.562299, "tags": {"addr:city": "Montr\u00e9al", "addr:housenumber": "1579", "addr:postcode": "H2X 3K3", "addr:street": "Rue Saint-Denis", "amenity": "restaurant", "check_date": "2023-09-07", "cuisine": "vietnamese", "name": "Vua Sandwichs", "outdoor_seating": "yes", "payment:credit_cards": "yes", "phone": "+1-514-439-1231", "website": "http://vuasandwichs.com/", "wheelchair": "no"}}, {"type": "node", "id": 1432358624, "lat": 45.5073314, "lon": -73.5699456, "tags": {"amenity": "cafe", "name": "Van Houtte", "wheelchair": "yes"}}, {"type": "node", "id": 1433206444, "lat": 45.5375037, "lon": -73.6985509, "tags": {"amenity": "pharmacy", "brand": "Pharmaprix", "brand:wikidata": "Q1820137", "brand:wikipedia": "en:Shoppers Drug Mart", "healthcare": "pharmacy", "name": "Pharmaprix", "website": "https://www.pharmaprix.ca/en/store-locator/store/1806", "website:en": "https://www.pharmaprix.ca/en/store-locator/store/1806", "website:fr": "https://www.pharmaprix.ca/fr/store-locator/store/1806"}}, {"type": "node", "id": 1433206467, "lat": 45.5383442, "lon": -73.6993967, "tags": {"addr:street": "De Salaberry", "amenity": "pharmacy", "brand": "Jean Coutu", "brand:wikidata": "Q3117457", "brand:wikipedia": "fr:Groupe Jean Coutu", "designation": "Jean-Coutu", "healthcare": "pharmacy", "int_name": "Pharmacy Jean-Coutu", "name": "Jean Coutu"}}, {"type": "node", "id": 1433216457, "lat": 45.56085, "lon": -73.657295, "tags": {"addr:street": "Rue Fleury Est", "amenity": "restaurant", "cuisine": "vietnamese", "name": "La Citronelle"}}, {"type": "node", "id": 1433218561, "lat": 45.5358868, "lon": -73.665118, "tags": {"amenity": "restaurant", "cuisine": "japanese"}}, {"type": "node", "id": 1448219709, "lat": 45.5135558, "lon": -73.57267, "tags": {"amenity": "restaurant", "check_date": "2023-09-22", "name": "Restaurant Au 14 Price-Arthur", "wheelchair": "yes"}}, {"type": "node", "id": 1450153382, "lat": 45.4961952, "lon": -73.5774565, "tags": {"amenity": "cafe", "name": "Cactus Wa Wa Tea House"}}, {"type": "node", "id": 1456305075, "lat": 45.5267463, "lon": -73.5886203, "tags": {"amenity": "restaurant", "name": "La Petite Marche", "opening_hours": "Su-Fr 08:00-01:00, Sa 08:00-02:00"}}, {"type": "node", "id": 1456706544, "lat": 45.5190695, "lon": -73.5965542, "tags": {"addr:city": "Montr\u00e9al", "addr:housenumber": "381", "addr:province": "Qu\u00e9bec", "addr:street": "Avenue Laurier Ouest", "amenity": "restaurant", "name": "Fiorellino", "wheelchair": "limited"}}, {"type": "node", "id": 1457950373, "lat": 45.520384, "lon": -73.5949037, "tags": {"amenity": "cafe", "name": "Toi, Moi  & Caf\u00e9"}}, {"type": "node", "id": 1458149800, "lat": 45.4959527, "lon": -73.620277}, {"type": "node", "id": 1513562243, "lat": 45.4909839, "lon": -73.8525238, "tags": {"addr:city": "Pierrefonds", "addr:housenumber": "4930", "addr:postcode": "H9H 4B2", "addr:street": "Boulevard Saint-Jean", "amenity": "pharmacy", "brand": "Jean Coutu", "brand:wikidata": "Q3117457", "brand:wikipedia": "fr:Groupe Jean Coutu", "healthcare": "pharmacy", "name": "Jean Coutu"}}, {"type": "node", "id": 1515928358, "lat": 45.4943664, "lon": -73.5804592, "tags": {"addr:housenumber": "1452", "addr:street": "Rue Saint Mathieu", "amenity": "restaurant", "check_date": "2023-09-09", "cuisine": "vietnamese", "name": "Pho Nguyen"}}, {"type": "node", "id": 1531366540, "lat": 45.4874495, "lon": -73.5869319, "tags": {"addr:housenumber": "4114", "addr:street": "Rue Sainte-Catherine Ouest", "amenity": "restaurant", "cuisine": "cake", "designation": "Dessert", "name": "Calories"}}, {"type": "node", "id": 1536060606, "lat": 45.5355591, "lon": -73.6037402, "tags": {"amenity": "cafe", "cuisine": "breakfast", "name": "Caf\u00e9 Coyote", "smoking": "no", "wheelchair": "no"}}, {"type": "node", "id": 1537166697, "lat": 45.5246767, "lon": -73.6258609, "tags": {"amenity": "restaurant", "automatic_door": "no", "cuisine": "indian", "entrance": "yes", "name": "Bombay Mahal", "wheelchair": "no"}}, {"type": "node", "id": 1537662923, "lat": 45.5337157, "lon": -73.6046218, "tags": {"addr:city": "Montr\u00e9al", "addr:housenumber": "6414", "addr:street": "Rue Saint-Denis", "amenity": "restaurant", "capacity": "75", "cuisine": "vietnamese", "name": "Pho' T\u00e2y H\u00f4", "opening_hours": "Mo,We-Su 11:30-20:30", "phone": "+1 514-273-5627", "smoking": "no", "wheelchair": "yes"}}, {"type": "node", "id": 1546480832, "lat": 45.5379405, "lon": -73.6012155, "tags": {"amenity": "pharmacy", "brand": "Jean Coutu", "brand:wikidata": "Q3117457", "brand:wikipedia": "fr:Groupe Jean Coutu", "check_date": "2023-09-10", "healthcare": "pharmacy", "name": "Jean Coutu", "opening_hours": "Mo-Fr 09:00-21:00; Sa,Su 09:00-18:00", "payment:interac": "yes", "payment:mastercard": "yes", "payment:visa": "yes"}}, {"type": "node", "id": 1549087575, "lat": 45.4988357, "lon": -73.572815, "tags": {"addr:postcode": "H3B 2S7", "amenity": "restaurant", "cuisine": "chinese", "name": "Buffet Ka Lo Hin", "phone": "+1 514 871 8099"}}, {"type": "node", "id": 1557702182, "lat": 45.5199886, "lon": -73.5866727, "tags": {"addr:city": "Montr\u00e9al", "addr:housenumber": "15", "addr:province": "QC", "addr:street": "Avenue du Mont-Royal Ouest", "amenity": "cafe", "brand": "Tim Hortons", "brand:wikidata": "Q175106", "brand:wikipedia": "en:Tim Hortons", "cuisine": "coffee_shop", "internet_access": "wlan", "internet_access:fee": "no", "name": "Tim Hortons", "phone": "+1-514-844-4744", "smoking": "no", "takeaway": "yes", "wheelchair": "yes"}}, {"type": "node", "id": 1558378068, "lat": 45.5010019, "lon": -73.5768406, "tags": {"amenity": "restaurant", "cuisine": "indian", "indoor_seating": "yes", "name": "Le Taj", "outdoor_seating": "no", "phone": "+1 514 845 9015", "website": "https://www.restaurantletaj.com/", "wheelchair": "yes"}}, {"type": "node", "id": 1558670026, "lat": 45.50697, "lon": -73.568608, "tags": {"amenity": "cafe", "brand": "Tim Hortons", "brand:wikidata": "Q175106", "brand:wikipedia": "en:Tim Hortons", "cuisine": "coffee_shop", "internet_access": "wlan", "internet_access:fee": "yes", "name": "Tim Hortons", "takeaway": "yes", "wheelchair": "yes"}}, {"type": "node", "id": 1558671274, "lat": 45.5187614, "lon": -73.594298, "tags": {"amenity": "pharmacy", "healthcare": "pharmacy", "name": "Pharmacie Uniprix Nadine Fadel", "wheelchair": "yes"}}, {"type": "node", "id": 1558688304, "lat": 45.5190121, "lon": -73.5941039, "tags": {"addr:city": "Montr\u00e9al", "addr:housenumber": "4903", "addr:postcode": "H2V 4E7", "addr:province": "QC", "addr:street": "Avenue du Parc", "amenity": "restaurant", "cuisine": "breakfast", "name": "L'Oeufrier", "wheelchair": "yes"}}, {"type": "node", "id": 1558689198, "lat": 45.519169, "lon": -73.594976, "tags": {"amenity": "restaurant", "created_by": "iLOE 1.9", "cuisine": "vietnamese", "name": "Tini"}}, {"type": "node", "id": 1560683990, "lat": 45.5275334, "lon": -73.6236988, "tags": {"addr:housenumber": "654", "addr:street": "Rue Jean-Talon Ouest", "amenity": "restaurant", "automatic_door": "no", "cuisine": "greek", "entrance": "yes", "name": "Souvlaki Village Grec", "phone": "+1-514-274-4371;+1-514-274-4372", "wheelchair": "bad"}}, {"type": "node", "id": 1563142218, "lat": 45.5202843, "lon": -73.5864145, "tags": {"addr:housenumber": "1", "addr:postcode": "H2T 1N4", "addr:street": "Avenue du Mont-Royal Est", "amenity": "pharmacy", "brand": "Pharmaprix", "brand:wikidata": "Q1820137", "brand:wikipedia": "fr:Pharmaprix", "healthcare": "pharmacy", "name": "Pharmaprix", "source": "local knowledge", "website": "https://www.pharmaprix.ca/en/store-locator/store/62", "website:en": "https://www.pharmaprix.ca/en/store-locator/store/62", "website:fr": "https://www.pharmaprix.ca/fr/store-locator/store/62", "wheelchair": "yes"}}, {"type": "node", "id": 1564769930, "lat": 45.4942344, "lon": -73.8772679, "tags": {"amenity": "pharmacy", "brand": "Jean Coutu", "brand:wikidata": "Q3117457", "brand:wikipedia": "en:Jean Coutu Group", "healthcare": "pharmacy", "name": "Jean Coutu"}}, {"type": "node", "id": 1566544895, "lat": 45.5140217, "lon": -73.557839, "tags": {"amenity": "restaurant", "name": "Restaurant Il Cavliere"}}, {"type": "node", "id": 1566579180, "lat": 45.5155749, "lon": -73.5805297, "tags": {"addr:housenumber": "3990", "addr:postcode": "H2W 1T7", "addr:province": "QC", "addr:street": "Rue Saint-Urbain", "addr:suburb": "Le Plateau-Mont-Royal", "amenity": "cafe", "cuisine": "sandwich", "diet:vegan": "no", "diet:vegetarian": "yes", "internet_access": "wlan", "internet_access:fee": "no", "internet_access:operator": "\u00cele Sans Fil", "name": "Santropol", "name:fr": "Santropol", "opening_hours": "Tu-Su 11:00-21:30", "phone": "+1 514 842 3110", "website": "https://www.santropol.com/", "wheelchair": "no"}}, {"type": "node", "id": 1570283306, "lat": 45.5209031, "lon": -73.5975468, "tags": {"addr:housenumber": "275", "addr:postcode": "H2V 0A1", "addr:province": "QC", "addr:street": "Avenue Fairmount Ouest", "addr:suburb": "Outremont", "amenity": "restaurant", "cuisine": "italian", "internet_access": "wlan", "internet_access:fee": "no", "name": "Kest\u00e9", "phone": "+1 514 509 1341", "website": "https://www.voro.ca/", "wheelchair": "yes"}}, {"type": "node", "id": 1570283309, "lat": 45.519294, "lon": -73.5983048, "tags": {"amenity": "restaurant", "cuisine": "mediterranean", "name": "Rumi"}}, {"type": "node", "id": 1571409549, "lat": 45.5163867, "lon": -73.5777906, "tags": {"amenity": "restaurant", "cuisine": "chicken", "name": "Coco Rico", "not:brand:wikidata": "Q65084369", "wheelchair": "no"}}, {"type": "node", "id": 1571409581, "lat": 45.5162542, "lon": -73.5774915, "tags": {"addr:housenumber": "3891", "addr:street": "Boul. Saint-Laurent", "amenity": "restaurant", "cuisine": "pizza", "description": "Authentic Italian pizza restaurant.", "name": "Prato Cafe Pizza", "opening_hours": "Mo-We 11:30-22:00; Th, Fr 11:30-23:00; Sa 14:30-23:00", "phone": "+1-514-285-1616", "website": "https://m.facebook.com/pages/Prato-Pizzeria-Cafe/", "wheelchair": "yes"}}, {"type": "node", "id": 1571409601, "lat": 45.5160926, "lon": -73.5770745, "tags": {"amenity": "pharmacy", "brand": "Pharmaprix", "brand:wikidata": "Q1820137", "brand:wikipedia": "en:Shoppers Drug Mart", "check_date": "2023-08-06", "healthcare": "pharmacy", "name": "Pharmaprix", "website": "https://www.pharmaprix.ca/en/store-locator/store/1800", "website:en": "https://www.pharmaprix.ca/en/store-locator/store/1800", "website:fr": "https://www.pharmaprix.ca/fr/store-locator/store/1800", "wheelchair": "yes"}}, {"type": "node", "id": 1571409628, "lat": 45.5160221, "lon": -73.5756285, "tags": {"amenity": "restaurant", "cuisine": "tex-mex", "name": "Icehouse", "wheelchair": "no"}}, {"type": "node", "id": 1571409655, "lat": 45.5167881, "lon": -73.5787144, "tags": {"addr:housenumber": "3991", "addr:street": "Boulevard Saint-Laurent", "amenity": "restaurant", "cuisine": "breton", "name": "Breizh Caf\u00e9", "phone": "+1-514-419-5634", "website": "https://www.lebreizhcafe.com/"}}, {"type": "node", "id": 1571409685, "lat": 45.5161755, "lon": -73.577329, "tags": {"amenity": "restaurant", "name": "Janos"}}, {"type": "node", "id": 1571409698, "lat": 45.5168163, "lon": -73.5787869, "tags": {"addr:city": "Montr\u00e9al", "addr:housenumber": "3995", "addr:postcode": "H2W 1Y4", "addr:province": "QC", "addr:street": "Boulevard Saint-Laurent", "amenity": "restaurant", "ele": "0", "name": "Le Vieux St-Laurent", "opening_hours": "Mo-Sa 6:30- 16:00, Su 7:30- 16:00", "payment:cash": "yes", "payment:credit_cards": "yes", "payment:debit_cards": "yes", "phone": "+1-514-848-0983", "wheelchair": "no"}}, {"type": "node", "id": 1571409720, "lat": 45.5165164, "lon": -73.5781111, "tags": {"amenity": "restaurant", "name": "Casa Minhota"}}, {"type": "node", "id": 1571507511, "lat": 45.517558, "lon": -73.57899, "tags": {"amenity": "cafe", "cuisine": "portuguese", "name": "Caf\u00e9 Central Portugais"}}, {"type": "node", "id": 1571507529, "lat": 45.518188, "lon": -73.578436, "tags": {"amenity": "restaurant", "cuisine": "portuguese", "name": "Na Brasa"}}, {"type": "node", "id": 1572065861, "lat": 45.5188997, "lon": -73.5840251, "tags": {"addr:city": "Montr\u00e9al", "addr:housenumber": "4328", "addr:postcode": "H2W 1Z3", "addr:province": "QC", "addr:street": "Boulevard Saint-Laurent", "amenity": "cafe", "name": "Darling"}}, {"type": "node", "id": 1572066046, "lat": 45.5187436, "lon": -73.5836323, "tags": {"addr:city": "Montr\u00e9al", "addr:housenumber": "4306", "addr:province": "QC", "addr:street": "Rue Saint-Denis", "amenity": "restaurant", "name": "Omnivore", "opening_hours": "Mo-Su 11:00-22:00", "wheelchair": "no"}}, {"type": "node", "id": 1573441843, "lat": 45.5151322, "lon": -73.5756221, "tags": {"amenity": "restaurant", "name": "514 Burger"}}, {"type": "node", "id": 1573455206, "lat": 45.5188389, "lon": -73.5838873, "tags": {"amenity": "restaurant", "cuisine": "regional", "name": "Bagel Etc."}}, {"type": "node", "id": 1573455210, "lat": 45.5160395, "lon": -73.5776928, "tags": {"addr:housenumber": "3872", "addr:postcode": "H2W 1Y2", "addr:province": "QC", "addr:street": "Boulevard Saint-Laurent", "addr:suburb": "Le Plateau-Mont-Royal", "amenity": "restaurant", "cuisine": "regional", "fax": "+1-514-843-7636", "internet_access": "wlan", "name": "La Cabane du Portugal", "phone": "+1 514 843 7283", "wheelchair": "limited"}}, {"type": "node", "id": 1573455217, "lat": 45.5163224, "lon": -73.5783646, "tags": {"amenity": "restaurant", "cuisine": "chinese", "name": "Petit Poisson Dumpling", "wheelchair": "no"}}, {"type": "node", "id": 1573682000, "lat": 45.519587, "lon": -73.5848515, "tags": {"addr:housenumber": "4403", "addr:street": "Boulevard Saint-Laurent", "amenity": "restaurant", "cuisine": "portuguese", "name": "Aldea"}}, {"type": "node", "id": 1573682016, "lat": 45.5196169, "lon": -73.5849286, "tags": {"addr:housenumber": "4409", "addr:postcode": "H2W 1Z8", "addr:street": "Boulevard Saint-Laurent", "amenity": "restaurant", "cuisine": "sushi", "name": "Osuka Sushi", "opening_hours:url": "https://www.osukasushi.com/", "phone": "+1 514 564  5999", "website": "https://www.osukasushi.com/"}}, {"type": "node", "id": 1575104801, "lat": 45.5092711, "lon": -73.5727403, "tags": {"amenity": "restaurant", "cuisine": "japanese", "name": "Isakaya", "wheelchair": "yes"}}, {"type": "node", "id": 1576231839, "lat": 45.5038391, "lon": -73.5707653, "tags": {"amenity": "cafe", "check_date": "2024-02-03", "name": "Cafe Olympico", "wheelchair": "no"}}, {"type": "node", "id": 1584988877, "lat": 45.5373559, "lon": -73.5701758, "tags": {"addr:city": "Montr\u00e9al", "addr:housenumber": "2296", "addr:postcode": "H2H 1K6", "addr:province": "Qu\u00e9bec", "addr:street": "Avenue du Mont-Royal Est", "amenity": "cafe", "check_date": "2024-02-17", "name": "Caf\u00e9 des bois"}}, {"type": "node", "id": 1584996995, "lat": 45.5362786, "lon": -73.5711739, "tags": {"addr:housenumber": "2190", "addr:street": "Avenue du Mont-Royal Est", "amenity": "restaurant", "check_date": "2024-02-17", "cuisine": "sushi", "name": "Kasa Sushi", "opening_hours": "10:00-22:00"}}, {"type": "node", "id": 1585019102, "lat": 45.520459, "lon": -73.586207, "tags": {"amenity": "restaurant", "created_by": "iLOE 1.9", "cuisine": "sushi", "name": "Ichi Sushi"}}, {"type": "node", "id": 1585848275, "lat": 45.4788556, "lon": -73.5684873, "tags": {"amenity": "restaurant", "cuisine": "indian", "name": "Le Bombay"}}, {"type": "node", "id": 1585848284, "lat": 45.4786725, "lon": -73.5692527, "tags": {"amenity": "restaurant", "cuisine": "pizza", "internet_access": "wlan", "name": "Pizza Charlevoix"}}, {"type": "node", "id": 1588964288, "lat": 45.5151056, "lon": -73.5748787, "tags": {"amenity": "restaurant", "name": "Kanu Ono"}}, {"type": "node", "id": 1593947892, "lat": 45.515328, "lon": -73.5635865, "tags": {"amenity": "restaurant", "cuisine": "sushi", "name": "Sushi St-Denis"}}, {"type": "node", "id": 1595014357, "lat": 45.504837, "lon": -73.57044, "tags": {"amenity": "restaurant", "name": "The Bay Restaurant", "wheelchair": "yes"}}, {"type": "node", "id": 1598954224, "lat": 45.4948673, "lon": -73.6551608, "tags": {"amenity": "restaurant", "cuisine": "greek", "name": "Marathon Souvlaki"}}, {"type": "node", "id": 1598954876, "lat": 45.4946003, "lon": -73.6555254, "tags": {"amenity": "restaurant", "cuisine": "american", "name": "B\u00e2ton Rouge"}}, {"type": "node", "id": 1600530832, "lat": 45.4944535, "lon": -73.6544722, "tags": {"amenity": "cafe", "brand": "Tim Hortons", "brand:wikidata": "Q175106", "brand:wikipedia": "en:Tim Hortons", "cuisine": "coffee_shop", "drive_in": "through", "name": "Tim Hortons", "opening_hours": "24/7", "takeaway": "yes"}}, {"type": "node", "id": 1601572069, "lat": 45.4985716, "lon": -73.5519676}, {"type": "node", "id": 1601572072, "lat": 45.4985773, "lon": -73.5520659}, {"type": "node", "id": 1601572075, "lat": 45.4986115, "lon": -73.5520611}, {"type": "node", "id": 1601572078, "lat": 45.4984784, "lon": -73.5519754}, {"type": "node", "id": 1601572080, "lat": 45.4986217, "lon": -73.5522616}, {"type": "node", "id": 1601572083, "lat": 45.4984934, "lon": -73.5522742}, {"type": "node", "id": 1605286511, "lat": 45.544562, "lon": -73.6277275, "tags": {"addr:city": "Montreal", "addr:housenumber": "618", "addr:postcode": "H2P 1V7", "addr:province": "QC", "addr:street": "Jarry Est", "amenity": "restaurant", "brand": "Mikes", "brand:wikidata": "Q3313615", "brand:wikipedia": "fr:Toujours Mikes", "cuisine": "pizza;pasta;sandwich", "name": "Mikes", "phone": "+1 438 380-1547", "website": "https://toujoursmikes.ca/", "wheelchair": "limited"}}, {"type": "node", "id": 1605679452, "lat": 45.495359, "lon": -73.568987, "tags": {"addr:housenumber": "1205", "addr:street": "Rue Saint-Antoine Ouest", "amenity": "restaurant", "created_by": "iLOE 1.9", "name": "La Mise au Jeu", "wheelchair": "yes"}}, {"type": "node", "id": 1609177552, "lat": 45.513486, "lon": -73.566373, "tags": {"addr:housenumber": "2004", "addr:street": "Avenue de l'H\u00f4tel-de-Ville", "amenity": "restaurant", "cuisine": "french", "name": "Grenadine"}}, {"type": "node", "id": 1609256996, "lat": 45.568637, "lon": -73.591246, "tags": {"amenity": "restaurant", "created_by": "iLOE 1.9", "cuisine": "chinese", "name": "Fu Lam Buffet Wok & Grill"}}, {"type": "node", "id": 1613756983, "lat": 45.5172527, "lon": -73.5803392, "tags": {"addr:housenumber": "13", "addr:street": "Rue Rachel Ouest", "amenity": "pharmacy", "dispensing": "yes", "healthcare": "pharmacy", "name": "Pharmacie Louise Dadashzadeh"}}, {"type": "node", "id": 1613759115, "lat": 45.517669, "lon": -73.581819, "tags": {"addr:street": "Rue Rachel Ouest", "amenity": "restaurant", "created_by": "iLOE 1.9", "cuisine": "portuguese", "name": "Boca Iberica"}},