{"version": 0.6, "generator": "Overpass API 0.7.62.1 084b4234", "osm3s": {"timestamp_osm_base": "2024-05-11T11:25:06Z", "copyright": "The data included in this document is from www.openstreetmap.org. The data is made available under ODbL."}, "elements": [{"type": "node", "id": 237589460, "lat": 45.5194363, "lon": -73.5986133, "tags": {"amenity": "cafe", "created_by": "JOSM", "name": "La Croissanterie Figaro"}}, {"type": "node", "id": 237590709, "lat": 45.5198595, "lon": -73.5959331, "tags": {"addr:housenumber": "5101", "addr:postcode": "H2V 4G3", "addr:province": "QC", "addr:street": "Avenue du Parc", "addr:suburb": "Outremont", "amenity": "cafe", "brand": "Columbus Caf\u00e9 & Co", "brand:wikidata": "Q90406058", "brand:wikipedia": "fr:Columbus Caf\u00e9 & Co", "changing_table": "no", "check_date": "2023-11-11", "cuisine": "coffee_shop", "internet_access": "wlan", "internet_access:fee": "no", "name": "Columbus Caf\u00e9 & Co", "opening_hours": "Mo-Fr 07:30-19:00; Sa-Su 08:30-19:00", "outdoor_seating": "no", "payment:cash": "yes", "payment:mastercard": "yes", "payment:visa": "yes", "phone": "+1 514 907 7827", "takeaway": "yes", "toilets:wheelchair": "yes", "website": "https://www.columbuscafe.com/", "wheelchair": "yes"}}, {"type": "node", "id": 299886511, "lat": 45.5439616, "lon": -73.5808831}, {"type": "node", "id": 300077245, "lat": 45.5272177, "lon": -73.580143, "tags": {"addr:housenumber": "957", "addr:postcode": "H2J 1X4", "addr:province": "QC", "addr:street": "Avenue du Mont-Royal Est", "addr:suburb": "Le Plateau-Mont-Royal", "amenity": "cafe", "email": "tiphainexie@gmail.com", "internet_access": "wlan", "internet_access:fee": "no", "name": "Caf\u00e9 Expressions", "opening_hours": "Mo-Su 07:30-22:00", "phone": "+1 514 528 9688", "website": "https://fr-ca.facebook.com/cafeexpressions"}}, {"type": "node", "id": 391849564, "lat": 45.4956457, "lon": -73.5796279, "tags": {"amenity": "cafe", "brand": "Starbucks", "brand:wikidata": "Q37158", "cuisine": "coffee_shop", "name": "Starbucks", "official_name": "Starbucks Coffee", "takeaway": "yes", "wheelchair": "yes"}}, {"type": "node", "id": 420041499, "lat": 45.4945397, "lon": -73.560401, "tags": {"amenity": "cafe", "cuisine": "sandwich", "indoor_seating": "yes", "name": "Restaurant Guan", "opening_hours": "Mo-Th 11:00-20:00", "outdoor_seating": "no"}}, {"type": "node", "id": 424724186, "lat": 45.512661, "lon": -73.5702494, "tags": {"amenity": "cafe", "brand": "Tim Hortons", "brand:wikidata": "Q175106", "brand:wikipedia": "en:Tim Hortons", "check_date": "2023-08-06", "cuisine": "coffee_shop", "internet_access": "wlan", "internet_access:fee": "yes", "name": "Tim Hortons", "takeaway": "yes", "wheelchair": "yes"}}, {"type": "node", "id": 425718548, "lat": 45.5145854, "lon": -73.5619914, "tags": {"addr:city": "Montr\u00e9al", "addr:housenumber": "1551", "addr:postcode": "H2X 3K3", "addr:street": "Rue Saint-Denis", "amenity": "cafe", "brand": "Second Cup", "brand:wikidata": "Q862180", "brand:wikipedia": "en:Second Cup", "cuisine": "coffee_shop", "name": "Second Cup", "takeaway": "yes"}}, {"type": "node", "id": 458918543, "lat": 45.5140664, "lon": -73.572641, "tags": {"addr:housenumber": "3601", "addr:postcode": "H2X 2V5", "addr:province": "QC", "addr:street": "Boulevard Saint-Laurent", "addr:suburb": "Le Plateau-Mont-Royal", "amenity": "cafe", "brand": "Starbucks", "brand:wikidata": "Q37158", "brand:wikipedia": "en:Starbucks", "cuisine": "coffee_shop", "indoor_seating": "yes", "internet_access": "wlan", "name": "Starbucks", "official_name": "Starbucks Coffee", "opening_hours": "Mo-Su 06:30-23:00", "outdoor_seating": "yes", "phone": "+1-514-285-0009", "takeaway": "yes", "website": "https://www.cafedepot.com/", "wheelchair": "yes"}}, {"type": "node", "id": 459929702, "lat": 45.5165141, "lon": -73.5703617}, {"type": "node", "id": 462248724, "lat": 45.5009937, "lon": -73.5590024, "tags": {"amenity": "cafe", "name": "Presse Caf\u00e9", "wheelchair": "yes"}}, {"type": "node", "id": 468969740, "lat": 45.5056494, "lon": -73.5600561, "tags": {"amenity": "cafe", "brand": "Tim Hortons", "brand:wikidata": "Q175106", "brand:wikipedia": "en:Tim Hortons", "cuisine": "coffee_shop", "internet_access": "wlan", "internet_access:fee": "yes", "name": "Tim Hortons", "takeaway": "yes"}}, {"type": "node", "id": 486668548, "lat": 45.493228, "lon": -73.5746428, "tags": {"amenity": "cafe", "internet_access": "wlan", "name": "Van Houtte"}}, {"type": "node", "id": 497839303, "lat": 45.5257124, "lon": -73.5815843, "tags": {"addr:street": "Avenue Mont-Royal Est", "amenity": "cafe", "brand": "Starbucks", "brand:wikidata": "Q37158", "brand:wikipedia": "en:Starbucks", "check_date": "2023-05-29", "cuisine": "coffee_shop", "internet_access": "wlan", "internet_access:fee": "no", "name": "Starbucks", "official_name": "Starbucks Coffee", "opening_hours": "Mo-Fr 06:00-23:00;Sa,Su 07:00-23:00", "payment:mastercard": "yes", "payment:visa": "yes", "source": "Local knowledge", "takeaway": "yes", "wheelchair": "limited"}}, {"type": "node", "id": 522863914, "lat": 45.5346919, "lon": -73.5824438, "tags": {"addr:city": "Montr\u00e9al", "addr:housenumber": "1546", "addr:postcode": "H2J1H9", "addr:province": "QC", "addr:street": "Avenue Laurier Est", "amenity": "cafe", "internet_access": "no", "name": "M\u00e9chant Pinson", "opening_hours": "Mo-Fr 07:00-19:00, Sa,Su 08:00-19:00", "outdoor_seating": "yes", "phone": "+15149691096", "website": "https://mechantspinsons.com/", "wheelchair": "limited"}}, {"type": "node", "id": 764524151, "lat": 45.540941, "lon": -73.6036921, "tags": {"addr:housenumber": "1251", "addr:street": "Rue Saint-Zotique Est", "amenity": "cafe", "name": "Caf\u00e9 Johnny M", "opening_hours": "07:00-19:00", "phone": "+1-514-495-7975"}}, {"type": "node", "id": 810791050, "lat": 45.5291657, "lon": -73.5877742, "tags": {"addr:housenumber": "803", "addr:street": "Avenue Laurier Est", "amenity": "cafe", "name": "Carmen Felipe", "phone": "+1-514-798-0807", "website": "https://carmenfelipe.com/"}}, {"type": "node", "id": 868479771, "lat": 45.5046362, "lon": -73.5724408, "tags": {"addr:housenumber": "2075", "addr:street": "Boulevard Robert-Bourassa", "amenity": "cafe", "name": "Hinnawi Bros", "opening_hours": "Mo-Fr 07:00-19:00; Sa-Su 09:00-18:00"}}, {"type": "node", "id": 882629859, "lat": 45.5179753, "lon": -73.5819873, "tags": {"amenity": "cafe", "name": "Caf\u00e9 Bistro"}}, {"type": "node", "id": 882652074, "lat": 45.505105, "lon": -73.57166, "tags": {"amenity": "cafe", "brand": "Starbucks", "brand:wikidata": "Q37158", "brand:wikipedia": "en:Starbucks", "cuisine": "coffee_shop", "name": "Starbucks", "official_name": "Starbucks Coffee", "takeaway": "yes", "wheelchair": "yes"}}, {"type": "node", "id": 892659877, "lat": 45.5673991, "lon": -73.5892841, "tags": {"amenity": "cafe", "brand": "Tim Hortons", "brand:wikidata": "Q175106", "brand:wikipedia": "en:Tim Hortons", "cuisine": "coffee_shop", "internet_access": "wlan", "internet_access:fee": "no", "name": "Tim Hortons", "takeaway": "yes"}}, {"type": "node", "id": 934203568, "lat": 45.5179762, "lon": -73.5693519, "tags": {"amenity": "cafe", "internet_access": "wlan", "name": "La petite cuill\u00e8re", "outdoor_seating": "yes", "website": "http://www.petitecuillere.com"}}, {"type": "node", "id": 934881660, "lat": 45.4991822, "lon": -73.5735117, "tags": {"amenity": "cafe", "brand": "Second Cup", "brand:wikidata": "Q862180", "brand:wikipedia": "en:Second Cup", "cuisine": "coffee_shop", "name": "Second Cup", "takeaway": "yes", "wheelchair": "yes"}}, {"type": "node", "id": 936979474, "lat": 45.5053767, "lon": -73.5729096, "tags": {"addr:housenumber": "626", "addr:street": "Rue Sherbrooke Ouest", "amenity": "cafe", "internet_access": "wlan", "name": "Java u", "opening_hours": "Mo-Th 07:00-21:00; Fr 07:00-20:00; Sa-Su 08:00-20:00"}}, {"type": "node", "id": 942874457, "lat": 45.5452307, "lon": -73.544586, "tags": {"addr:city": "Montreal", "addr:housenumber": "3606", "addr:postcode": "H1W 1R7", "addr:province": "QC", "addr:street": "Rue Ontario Est", "addr:suburb": "Mercier-Hochelaga-Maisonneuve", "amenity": "cafe", "check_date": "2023-03-04", "cuisine": "coffee_shop;pizza;american;international", "diet:halal": "no", "diet:kosher": "no", "diet:vegan": "yes", "diet:vegetarian": "yes", "indoor_seating": "yes", "internet_access": "wlan", "internet_access:fee": "yes", "internet_access:ssid": "atomic neu", "name": "Atomic Caf\u00e9", "name:fr": "Atomic Caf\u00e9", "opening_hours": "Mo-Fr 08:00-23:59; Sa-Su 09:00-23:59", "outdoor_seating": "no", "payment:debit_cards": "yes", "phone": "+1 514 525 9601", "smoking": "no"}}, {"type": "node", "id": 988792368, "lat": 45.5030177, "lon": -73.5602958, "tags": {"amenity": "cafe", "name": "Java U"}}, {"type": "node", "id": 998748014, "lat": 45.4959818, "lon": -73.5796559, "tags": {"addr:housenumber": "2081", "addr:street": "Rue Guy", "amenity": "cafe", "brand": "Tim Hortons", "brand:wikidata": "Q175106", "cuisine": "coffee_shop", "internet_access": "wlan", "internet_access:fee": "yes", "name": "Tim Hortons", "takeaway": "yes", "wheelchair": "yes"}}, {"type": "node", "id": 998748019, "lat": 45.4957981, "lon": -73.5790314, "tags": {"addr:housenumber": "1455", "addr:province": "QC", "addr:street": "Rue Guy", "amenity": "cafe", "name": "Java U", "wheelchair": "yes"}}, {"type": "node", "id": 1018669756, "lat": 45.5652958, "lon": -73.5230192}, {"type": "node", "id": 1018669785, "lat": 45.5651566, "lon": -73.5228058}, {"type": "node", "id": 1018669791, "lat": 45.5651797, "lon": -73.5229415}, {"type": "node", "id": 1018669811, "lat": 45.5652843, "lon": -73.5230867}, {"type": "node", "id": 1018669851, "lat": 45.5651928, "lon": -73.5229361}, {"type": "node", "id": 1018669924, "lat": 45.5652537, "lon": -73.5227663}, {"type": "node", "id": 1018670057, "lat": 45.5652312, "lon": -73.5231038}, {"type": "node", "id": 1057471110, "lat": 45.50698, "lon": -73.5661567, "tags": {"addr:housenumber": "262", "addr:street": "Rue Sainte-Catherine Ouest", "amenity": "cafe", "cuisine": "coffee_shop", "internet_access": "wlan", "internet_access:fee": "no", "name": "Columbus Caf\u00e9 & Co", "outdoor_seating": "yes", "takeaway": "yes", "website": "https://www.columbuscafe.com", "wheelchair": "yes"}}, {"type": "node", "id": 1112495180, "lat": 45.4673514, "lon": -73.5392791, "tags": {"amenity": "cafe", "brand": "Tim Hortons", "brand:wikidata": "Q175106", "brand:wikipedia": "en:Tim Hortons", "cuisine": "coffee_shop", "name": "Tim Hortons", "takeaway": "yes"}}, {"type": "node", "id": 1113857777, "lat": 45.5265023, "lon": -73.5803618, "tags": {"addr:housenumber": "900", "addr:postcode": "H2J 1X2", "addr:province": "QC", "addr:street": "Avenue du Mont-Royal Est", "addr:suburb": "Le Plateau-Mont-Royal", "amenity": "cafe", "brand": "Second Cup", "brand:wikidata": "Q862180", "brand:wikipedia": "en:Second Cup", "check_date": "2023-05-29", "cuisine": "coffee_shop", "internet_access": "wlan", "internet_access:fee": "no", "name": "Second Cup", "opening_hours": "Mo-Fr 06:30-22:00; Sa-Su 07:30-22:00", "payment:mastercard": "yes", "payment:visa": "yes", "phone": "+1 514 528 1717", "smoking": "no", "takeaway": "yes", "wheelchair": "limited"}}, {"type": "node", "id": 1192154243, "lat": 45.4948318, "lon": -73.5777732, "tags": {"amenity": "cafe", "brand": "Second Cup", "brand:wikidata": "Q862180", "brand:wikipedia": "en:Second Cup", "cuisine": "coffee_shop", "name": "Second Cup", "takeaway": "yes", "wheelchair": "yes"}}, {"type": "node", "id": 1192154324, "lat": 45.494505, "lon": -73.5781834, "tags": {"amenity": "cafe", "brand": "Starbucks", "brand:wikidata": "Q37158", "cuisine": "coffee_shop", "name": "Starbucks", "official_name": "Starbucks Coffee", "takeaway": "yes", "wheelchair": "yes"}}, {"type": "node", "id": 1199366699, "lat": 45.4970185, "lon": -73.5756395, "tags": {"amenity": "cafe", "level": "0", "name": "Columbus Caf\u00e9 & Co"}}, {"type": "node", "id": 1231381513, "lat": 45.4985268, "lon": -73.5795792, "tags": {"addr:housenumber": "1384", "addr:postcode": "H3G 2E8", "addr:street": "Rue Sherbrooke Ouest", "amenity": "cafe", "name": "Le caf\u00e9 des beaux-arts", "step_count": "0", "wheelchair": "yes"}}, {"type": "node", "id": 1232026989, "lat": 45.4983266, "lon": -73.5777757, "tags": {"addr:housenumber": "2045", "addr:postcode": "H3G 2C1", "addr:street": "Rue Crescent", "amenity": "cafe", "brand": "Nespresso", "brand:wikidata": "Q301301", "brand:wikipedia": "en:Nespresso", "name": "Nespresso", "shop": "coffee", "wheelchair": "limited"}}, {"type": "node", "id": 1258972131, "lat": 45.553536, "lon": -73.6191165, "tags": {"amenity": "cafe", "brand": "Tim Hortons", "brand:wikidata": "Q175106", "cuisine": "coffee_shop", "name": "Tim Hortons", "takeaway": "yes"}}, {"type": "node", "id": 1263357123, "lat": 45.4960824, "lon": -73.5777864, "tags": {"addr:housenumber": "1432", "addr:street": "Rue Mackay", "amenity": "cafe", "email": "info@cafemyriade.com", "name": "Cafe Myriade", "opening_hours": "Mo-Fr 07:30-19:00; Sa,Su 09:00-19:00", "phone": "+1-514-939-1717", "website": "http://www.cafemyriade.com/wp/mackay/", "wheelchair": "yes"}}, {"type": "node", "id": 1271672559, "lat": 45.501726, "lon": -73.570212, "tags": {"addr:housenumber": "1241", "addr:postcode": "H3B 5K4", "addr:street": "Avenue McGill-College", "amenity": "cafe", "name": "Java U Caf\u00e9", "wheelchair": "yes"}}, {"type": "node", "id": 1271672562, "lat": 45.5014441, "lon": -73.5705145, "tags": {"amenity": "cafe", "brand": "Caf\u00e9 D\u00e9p\u00f4t", "brand:wikidata": "Q64924449", "cuisine": "coffee_shop;cake;bagel;bistro", "name": "Caf\u00e9 D\u00e9p\u00f4t", "takeaway": "yes", "wheelchair": "yes"}}, {"type": "node", "id": 1271672568, "lat": 45.5007647, "lon": -73.5691308, "tags": {"amenity": "cafe", "cuisine": "coffee_shop", "name": "Van Houtte", "operator": "Keurig Canada", "wheelchair": "yes"}}, {"type": "node", "id": 1271672582, "lat": 45.5006443, "lon": -73.5692327, "tags": {"amenity": "cafe", "cuisine": "dessert", "name": "Brioche dor\u00e9", "shop": "bakery", "wheelchair": "yes"}}, {"type": "node", "id": 1278632226, "lat": 45.5033877, "lon": -73.56653, "tags": {"amenity": "cafe", "name": "Caf\u00e9 supr\u00eame", "wheelchair": "yes"}}, {"type": "node", "id": 1278632281, "lat": 45.5029402, "lon": -73.5668224, "tags": {"amenity": "cafe", "brand": "Tim Hortons", "brand:wikidata": "Q175106", "brand:wikipedia": "en:Tim Hortons", "cuisine": "coffee_shop", "internet_access": "wlan", "internet_access:fee": "yes", "name": "Tim Hortons", "takeaway": "yes", "wheelchair": "limited"}}, {"type": "node", "id": 1281694815, "lat": 45.5040706, "lon": -73.5682724, "tags": {"amenity": "cafe", "brand": "Second Cup", "brand:wikidata": "Q862180", "brand:wikipedia": "en:Second Cup", "cuisine": "coffee_shop", "name": "Second Cup", "takeaway": "yes"}}, {"type": "node", "id": 1299794340, "lat": 45.5345727, "lon": -73.5513672}, {"type": "node", "id": 1299794438, "lat": 45.5344206, "lon": -73.551467}, {"type": "node", "id": 1299794483, "lat": 45.5345179, "lon": -73.5512134}, {"type": "node", "id": 1299794509, "lat": 45.5343763, "lon": -73.551308}, {"type": "node", "id": 1302771024, "lat": 45.5409566, "lon": -73.5879575, "tags": {"addr:housenumber": "1963", "addr:street": "des carrieres", "amenity": "cafe", "cuisine": "sandwich", "name": "Magr\u00e9bia"}}, {"type": "node", "id": 1302772197, "lat": 45.5024157, "lon": -73.5671414, "tags": {"amenity": "cafe", "name": "Presse Cafe", "wheelchair": "yes"}}, {"type": "node", "id": 1302772209, "lat": 45.504273, "lon": -73.5651163, "tags": {"amenity": "cafe", "level": "0", "name": "Copper Branch", "shop": "clothes"}}, {"type": "node", "id": 1307144657, "lat": 45.5000465, "lon": -73.5748464, "tags": {"amenity": "cafe", "name": "Caf\u00e9 Java U"}}, {"type": "node", "id": 1307144790, "lat": 45.5006273, "lon": -73.5744358, "tags": {"amenity": "cafe", "name": "Caf\u00e9 Vasco Da Gama", "wheelchair": "no"}}, {"type": "node", "id": 1307398645, "lat": 45.5037689, "lon": -73.5573482, "tags": {"addr:city": "Montr\u00e9al", "addr:housenumber": "200", "addr:street": "Rue Notre-Dame Ouest", "amenity": "cafe", "name": "Caf\u00e9 Tommy", "opening_hours": "Mo-Su 08:00-20:00", "phone": "+1-514-903-8669"}}, {"type": "node", "id": 1307401250, "lat": 45.5095826, "lon": -73.5513412, "tags": {"addr:city": "Montr\u00e9al", "addr:housenumber": "350", "addr:street": "Rue Saint-Paul Est", "amenity": "cafe", "name": "Caf\u00e9 Des Arts", "source": "NRCan-CanVec-7.0"}}, {"type": "node", "id": 1315087435, "lat": 45.5258728, "lon": -73.5520126, "tags": {"amenity": "cafe", "brand": "Tim Hortons", "brand:wikidata": "Q175106", "brand:wikipedia": "en:Tim Hortons", "cuisine": "coffee_shop", "internet_access": "wlan", "internet_access:fee": "no", "name": "Tim Hortons", "takeaway": "yes"}}, {"type": "node", "id": 1333772132, "lat": 45.4421373, "lon": -73.6463576, "tags": {"addr:city": "Montr\u00e9al", "addr:housenumber": "5", "addr:province": "QC", "addr:street": "Avenue Saint-Pierre", "amenity": "cafe", "brand": "Tim Hortons", "brand:wikidata": "Q175106", "brand:wikipedia": "en:Tim Hortons", "cuisine": "coffee_shop", "internet_access": "wlan", "internet_access:fee": "no", "name": "Tim Hortons", "takeaway": "yes"}}, {"type": "node", "id": 1374812556, "lat": 45.5078171, "lon": -73.5694155, "tags": {"amenity": "cafe", "brand": "Caf\u00e9 D\u00e9p\u00f4t", "brand:wikidata": "Q64924449", "cuisine": "coffee_shop;cake;bagel;bistro", "name": "Caf\u00e9 D\u00e9p\u00f4t", "takeaway": "yes", "wheelchair": "yes"}}, {"type": "node", "id": 1398030183, "lat": 45.5081543, "lon": -73.5650522, "tags": {"addr:city": "Montr\u00e9al", "addr:housenumber": "150", "addr:postcode": "H5B 2B8", "addr:street": "Rue Sainte-Catherine Ouest", "amenity": "cafe", "brand": "Caf\u00e9 D\u00e9p\u00f4t", "brand:wikidata": "Q64924449", "cuisine": "coffee_shop;cake;bagel;bistro", "drink:espresso": "served", "internet_access": "yes", "name": "Caf\u00e9 D\u00e9p\u00f4t", "phone": "+1-514-286-9598", "ref": "Loc# 214", "takeaway": "yes", "wheelchair": "yes"}}, {"type": "node", "id": 1427593065, "lat": 45.4325148, "lon": -73.628712, "tags": {"amenity": "cafe", "brand": "Tim Hortons", "brand:wikidata": "Q175106", "brand:wikipedia": "en:Tim Hortons", "cuisine": "coffee_shop", "internet_access": "wlan", "internet_access:fee": "no", "name": "Tim Hortons", "takeaway": "yes"}}, {"type": "node", "id": 1427593081, "lat": 45.4319025, "lon": -73.630042, "tags": {"addr:city": "Lasalle", "addr:housenumber": "8460", "addr:postcode": "H8N 1Y5", "addr:province": "QC", "addr:street": "Boulevard Newman", "amenity": "cafe", "brand": "Starbucks", "brand:wikidata": "Q37158", "brand:wikipedia": "en:Starbucks", "cuisine": "coffee_shop", "delivery": "yes", "drive_through": "yes", "name": "Starbucks", "official_name": "Starbucks Coffee", "opening_hours": "Mo-Su 06:00-22:00", "outdoor_seating": "no", "phone": "+1 514-654-6255", "takeaway": "yes"}}, {"type": "node", "id": 1427593082, "lat": 45.4320135, "lon": -73.6317237, "tags": {"addr:city": "Lasalle", "addr:housenumber": "8481", "addr:postcode": "H8N 2Y7", "addr:province": "QC", "addr:street": "Boulevard Newman", "amenity": "cafe", "brand": "Tim Hortons", "brand:wikidata": "Q175106", "brand:wikipedia": "en:Tim Hortons", "cuisine": "coffee_shop", "delivery": "yes", "internet_access": "wlan", "internet_access:fee": "no", "name": "Tim Hortons", "opening_hours": "24/7", "outdoor_seating": "no", "phone": "+1 888-601-1616", "takeaway": "yes"}}, {"type": "node", "id": 1429426206, "lat": 45.5159918, "lon": -73.5597705, "tags": {"amenity": "cafe", "brand": "Caf\u00e9 D\u00e9p\u00f4t", "brand:wikidata": "Q64924449", "cuisine": "coffee_shop;cake;bagel;bistro", "name": "Caf\u00e9 D\u00e9p\u00f4t", "takeaway": "yes"}}, {"type": "node", "id": 1429426308, "lat": 45.5148657, "lon": -73.5626621, "tags": {"amenity": "cafe", "brand": "Tim Hortons", "brand:wikidata": "Q175106", "brand:wikipedia": "en:Tim Hortons", "check_date": "2023-09-07", "cuisine": "coffee_shop", "internet_access": "wlan", "internet_access:fee": "yes", "name": "Tim Hortons", "payment:credit_cards": "yes", "takeaway": "yes"}}, {"type": "node", "id": 1429426316, "lat": 45.5147463, "lon": -73.5623858, "tags": {"amenity": "cafe", "check_date": "2023-09-07", "name": "Br\u00fblerie St-Denis", "payment:credit_cards": "yes"}}, {"type": "node", "id": 1432358624, "lat": 45.5073314, "lon": -73.5699456, "tags": {"amenity": "cafe", "name": "Van Houtte", "wheelchair": "yes"}}, {"type": "node", "id": 1450153382, "lat": 45.4961952, "lon": -73.5774565, "tags": {"amenity": "cafe", "name": "Cactus Wa Wa Tea House"}}, {"type": "node", "id": 1457950373, "lat": 45.520384, "lon": -73.5949037, "tags": {"amenity": "cafe", "name": "Toi, Moi  & Caf\u00e9"}}, {"type": "node", "id": 1536060606, "lat": 45.5355591, "lon": -73.6037402, "tags": {"amenity": "cafe", "cuisine": "breakfast", "name": "Caf\u00e9 Coyote", "smoking": "no", "wheelchair": "no"}}, {"type": "node", "id": 1557702182, "lat": 45.5199886, "lon": -73.5866727, "tags": {"addr:city": "Montr\u00e9al", "addr:housenumber": "15", "addr:province": "QC", "addr:street": "Avenue du Mont-Royal Ouest", "amenity": "cafe", "brand": "Tim Hortons", "brand:wikidata": "Q175106", "brand:wikipedia": "en:Tim Hortons", "cuisine": "coffee_shop", "internet_access": "wlan", "internet_access:fee": "no", "name": "Tim Hortons", "phone": "+1-514-844-4744", "smoking": "no", "takeaway": "yes", "wheelchair": "yes"}}, {"type": "node", "id": 1558670026, "lat": 45.50697, "lon": -73.568608, "tags": {"amenity": "cafe", "brand": "Tim Hortons", "brand:wikidata": "Q175106", "brand:wikipedia": "en:Tim Hortons", "cuisine": "coffee_shop", "internet_access": "wlan", "internet_access:fee": "yes", "name": "Tim Hortons", "takeaway": "yes", "wheelchair": "yes"}}, {"type": "node", "id": 1566579180, "lat": 45.5155749, "lon": -73.5805297, "tags": {"addr:housenumber": "3990", "addr:postcode": "H2W 1T7", "addr:province": "QC", "addr:street": "Rue Saint-Urbain", "addr:suburb": "Le Plateau-Mont-Royal", "amenity": "cafe", "cuisine": "sandwich", "diet:vegan": "no", "diet:vegetarian": "yes", "internet_access": "wlan", "internet_access:fee": "no", "internet_access:operator": "\u00cele Sans Fil", "name": "Santropol", "name:fr": "Santropol", "opening_hours": "Tu-Su 11:00-21:30", "phone": "+1 514 842 3110", "website": "https://www.santropol.com/", "wheelchair": "no"}}, {"type": "node", "id": 1571507511, "lat": 45.517558, "lon": -73.57899, "tags": {"amenity": "cafe", "cuisine": "portuguese", "name": "Caf\u00e9 Central Portugais"}}, {"type": "node", "id": 1572065861, "lat": 45.5188997, "lon": -73.5840251, "tags": {"addr:city": "Montr\u00e9al", "addr:housenumber": "4328", "addr:postcode": "H2W 1Z3", "addr:province": "QC", "addr:street": "Boulevard Saint-Laurent", "amenity": "cafe", "name": "Darling"}}, {"type": "node", "id": 1576231839, "lat": 45.5038391, "lon": -73.5707653, "tags": {"amenity": "cafe", "check_date": "2024-02-03", "name": "Cafe Olympico", "wheelchair": "no"}}, {"type": "node", "id": 1584988877, "lat": 45.5373559, "lon": -73.5701758, "tags": {"addr:city": "Montr\u00e9al", "addr:housenumber": "2296", "addr:postcode": "H2H 1K6", "addr:province": "Qu\u00e9bec", "addr:street": "Avenue du Mont-Royal Est", "amenity": "cafe", "check_date": "2024-02-17", "name": "Caf\u00e9 des bois"}}, {"type": "node", "id": 1600530832, "lat": 45.4944535, "lon": -73.6544722, "tags": {"amenity": "cafe", "brand": "Tim Hortons", "brand:wikidata": "Q175106", "brand:wikipedia": "en:Tim Hortons", "cuisine": "coffee_shop", "drive_in": "through", "name": "Tim Hortons", "opening_hours": "24/7", "takeaway": "yes"}}, {"type": "node", "id": 1614354085, "lat": 45.574061, "lon": -73.559005, "tags": {"amenity": "cafe", "brand": "Tim Hortons", "brand:wikidata": "Q175106", "brand:wikipedia": "en:Tim Hortons", "cuisine": "coffee_shop", "internet_access": "wlan", "internet_access:fee": "no", "name": "Tim Hortons", "takeaway": "yes"}}, {"type": "node", "id": 1617212528, "lat": 45.5165769, "lon": -73.5633781, "tags": {"addr:housenumber": "1711", "addr:street": "Rue Berri", "amenity": "cafe", "check_date": "2023-09-07", "indoor_seating": "yes", "name": "Presse Caf\u00e9", "outdoor_seating": "no", "payment:interac": "yes", "payment:mastercard": "yes", "payment:visa": "yes", "wheelchair": "yes"}}, {"type": "node", "id": 1621008921, "lat": 45.4680909, "lon": -73.5432216, "tags": {"addr:housenumber": "7", "addr:postcode": "H3E 2B5", "addr:province": "QC", "addr:street": "Place du Commerce, suite 101", "addr:suburb": "Verdun", "amenity": "cafe", "brand": "Second Cup", "brand:wikidata": "Q862180", "brand:wikipedia": "en:Second Cup", "cuisine": "coffee_shop", "internet_access": "wlan", "name": "Second Cup", "name:en": "Second Cup", "phone": "+1 514 769 2992", "takeaway": "yes", "website": "https://secondcup.com/"}}, {"type": "node", "id": 1643704232, "lat": 45.4828717, "lon": -73.5755161, "tags": {"addr:housenumber": "2515", "addr:street": "Rue Notre-Dame Ouest", "amenity": "cafe", "cuisine": "coffee_shop", "name": "lili & oli", "opening_hours": "Sa-Su 08:00-20:00; Mo-Th 07:00-22:00; Fr 07:00-20:00"}}, {"type": "node", "id": 1654259692, "lat": 45.5232599, "lon": -73.6014592, "tags": {"amenity": "cafe", "name": "Caf\u00e9 en grains"}}, {"type": "node", "id": 1654265327, "lat": 45.5280786, "lon": -73.598057, "tags": {"amenity": "cafe", "check_date": "2023-08-10", "internet_access": "wlan", "internet_access:fee": "customers", "name": "Falco", "payment:interac": "yes", "payment:mastercard": "yes", "payment:visa": "yes", "wheelchair": "yes"}}, {"type": "node", "id": 1654271551, "lat": 45.5270695, "lon": -73.5980409, "tags": {"addr:housenumber": "83", "addr:street": "Rue Saint-Viateur Est", "amenity": "cafe", "cuisine": "coffee_shop", "name": "District Caf\u00e9", "phone": "+1-514-270-8931"}}, {"type": "node", "id": 1666308940, "lat": 45.5226543, "lon": -73.5806826, "tags": {"addr:city": "Montr\u00e9al", "addr:housenumber": "370", "addr:postcode": "H2W 1B1", "addr:province": "QC", "addr:street": "Rue Marie-Anne Est", "amenity": "cafe", "diet:vegan": "yes", "name": "Caf\u00e9 Tuyo"}}, {"type": "node", "id": 1704789540, "lat": 45.4961933, "lon": -73.6223941, "tags": {"addr:city": "Montr\u00e9al", "addr:housenumber": "5302", "addr:postcode": "H3T 1Y2", "addr:province": "Qu\u00e9bec", "addr:street": "Chemin de la C\u00f4te-des-Neiges", "amenity": "cafe", "brand:wikidata": "Q108166223", "cuisine": "bubble_tea", "drive_through": "no", "name": "Presotea", "operator": "Presotea", "outdoor_seating": "no"}}, {"type": "node", "id": 1743314556, "lat": 45.5242321, "lon": -73.5946289, "tags": {"amenity": "cafe", "name": "Sardine", "name:fr": "Chez Ta M\u00e8re"}}, {"type": "node", "id": 1743315868, "lat": 45.5238413, "lon": -73.59494, "tags": {"amenity": "cafe", "name": "Kilo"}}, {"type": "node", "id": 1743949810, "lat": 45.5231373, "lon": -73.5949985, "tags": {"amenity": "cafe", "name": "Caffe Grazie Mille", "opening_hours": "Mo-Fr 07:30-17:30; Sa,Su 08:00-17:30"}}, {"type": "node", "id": 1743950603, "lat": 45.5274981, "lon": -73.5892704, "tags": {"amenity": "cafe", "diet:vegetarian": "yes", "indoor_seating": "yes", "name": "La bo\u00eete gourmande", "opening_hours": "Mo-Fr 09:00-21:30; Sa 09:00-19:00; Su 09:00-18:00", "outdoor_seating": "no", "payment:credit_cards": "yes", "payment:debit_cards": "yes", "phone": "+1-514-270-5222"}}, {"type": "node", "id": 1751182525, "lat": 45.5247274, "lon": -73.5996891, "tags": {"amenity": "cafe", "name": "Maestro Caf\u00e9"}}, {"type": "node", "id": 1751212574, "lat": 45.5455436, "lon": -73.6381475, "tags": {"amenity": "cafe"}}, {"type": "node", "id": 1751212968, "lat": 45.5463179, "lon": -73.638707, "tags": {"addr:housenumber": "545", "addr:postcode": "H2M 2V1", "addr:province": "QC", "addr:street": "Boulevard Cr\u00e9mazie Est", "addr:suburb": "Ahuntsic-Cartierville", "amenity": "cafe", "internet_access": "wlan", "internet_access:fee": "no", "name": "Van Houtte", "phone": "+1 514 388 6077", "website": "https://www.vanhoutte.com/"}}, {"type": "node", "id": 1751346629, "lat": 45.5749011, "lon": -73.6478294, "tags": {"amenity": "cafe", "name": "Caf\u00e9 Rosso Nero"}}, {"type": "node", "id": 1924403808, "lat": 45.4911964, "lon": -73.8536284, "tags": {"addr:city": "Pierrefonds", "addr:housenumber": "14365", "addr:postcode": "H9H 1Z2", "addr:street": "Boulevard de Pierrefonds", "amenity": "cafe", "brand": "Tim Hortons", "brand:wikidata": "Q175106", "brand:wikipedia": "en:Tim Hortons", "contact:phone": "+1-514-696-9222", "cuisine": "coffee_shop", "drive_through": "yes", "internet_access": "wlan", "internet_access:fee": "no", "name": "Tim Hortons", "takeaway": "yes"}}, {"type": "node", "id": 1926167339, "lat": 45.4846077, "lon": -73.858153, "tags": {"addr:city": "Pierrefonds", "addr:housenumber": "14810", "addr:postcode": "H9H 4Y6", "addr:street": "Boulevard de Pierrefonds", "amenity": "cafe", "brand": "Tim Hortons", "brand:wikidata": "Q175106", "brand:wikipedia": "en:Tim Hortons", "contact:phone": "+1-514-696-0421", "cuisine": "coffee_shop", "drive_through": "yes", "name": "Tim Hortons", "takeaway": "yes"}}, {"type": "node", "id": 1926197637, "lat": 45.5062472, "lon": -73.8200946, "tags": {"addr:city": "Pierrefonds", "addr:housenumber": "4932", "addr:postcode": "H8Y 3C9", "addr:province": "QC", "addr:street": "Boulevard des Sources", "amenity": "cafe", "brand": "Tim Hortons", "brand:wikidata": "Q175106", "brand:wikipedia": "en:Tim Hortons", "contact:phone": "+1-514-685-0739", "cuisine": "coffee_shop", "internet_access": "wlan", "internet_access:fee": "no", "name": "Tim Hortons", "takeaway": "yes"}}, {"type": "node", "id": 1927577853, "lat": 45.4840767, "lon": -73.8602536, "tags": {"addr:city": "Pierrefonds", "addr:housenumber": "14845", "addr:postcode": "H9H 4M5", "addr:province": "QC", "addr:street": "Boulevard de Pierrefonds", "addr:suburb": "L'\u00cele-Bizard-Sainte-Genevi\u00e8ve", "amenity": "cafe", "brand": "Second Cup", "brand:wikidata": "Q862180", "brand:wikipedia": "en:Second Cup", "cuisine": "coffee_shop", "internet_access": "wlan", "name": "Second Cup", "phone": "+1 514 626 7041", "takeaway": "yes", "website": "https://secondcup.com/"}}, {"type": "node", "id": 1935431192, "lat": 45.5195215, "lon": -73.5805092, "tags": {"addr:housenumber": "151", "addr:street": "Rue Rachel Est", "amenity": "cafe", "check_date": "2023-03-12", "cuisine": "coffee_shop", "internet_access": "wlan", "internet_access:fee": "customers", "name": "Cafe Neve", "payment:mastercard": "yes", "payment:visa": "yes", "wheelchair": "no"}}, {"type": "node", "id": 1935440397, "lat": 45.5177354, "lon": -73.585168, "tags": {"amenity": "cafe", "name": "Il Caffe Cuore"}}, {"type": "node", "id": 1966795948, "lat": 45.479372, "lon": -73.5811096, "tags": {"addr:city": "Montr\u00e9al", "addr:housenumber": "3632", "addr:postcode": "H4C 1P5", "addr:province": "Qu\u00e9bec", "addr:street": "Rue Notre-Dame Ouest", "amenity": "cafe", "contact:facebook": "SaintHenriMicroTorrefacteur", "contact:instagram": "cafesainthenri", "contact:twitter": "cafesainthenri", "cuisine": "coffee_shop", "email": "cafe@sainthenri.ca", "internet_access": "wlan", "level": "0", "name": "Caf\u00e9 Saint-Henri", "opening_hours": "Sa-Su 08:00-18:00; Mo-Fr 07:30-18:00", "phone": "+1 (514) 543-7468", "website": "https://sainthenri.ca/"}}, {"type": "node", "id": 1967618774, "lat": 45.4848165, "lon": -73.5814382, "tags": {"addr:housenumber": "3068", "addr:postcode": "H4C 1A5", "addr:street": "Rue Saint-Antoine Ouest", "amenity": "cafe", "cuisine": "coffee_shop", "name": "Caf\u00e9 Joe"}}, {"type": "node", "id": 1996554733, "lat": 45.5384091, "lon": -73.6245356, "tags": {"addr:city": "Montr\u00e9al", "addr:country": "CA", "addr:housenumber": "151", "addr:postcode": "H2R 1G4", "addr:province": "Qu\u00e9bec", "addr:street": "Rue Villeray", "amenity": "cafe", "check_date": "2023-03-03", "cuisine": "coffee_shop", "email": "info@cafevito.ca", "name": "Caf\u00e9 Vito", "opening_hours": "Mo-Su 05:00-21:00", "payment:interac": "yes", "payment:mastercard": "yes", "payment:visa": "yes", "url": "http://cafevito.ca"}}, {"type": "node", "id": 2023153129, "lat": 45.5248915, "lon": -73.58446, "tags": {"addr:city": "Montr\u00e9al", "addr:housenumber": "4627", "addr:postcode": "H2J 2L4", "addr:street": "Saint Denis", "amenity": "cafe", "check_date": "2023-03-04", "cuisine": "coffee_shop", "email": "info@cafemyriade.com", "internet_access": "wifi", "name": "Myriade Espresso Bar", "name:fr": "myriade", "opening_hours": "09:00-18:00", "payment:interac": "yes", "payment:mastercard": "yes", "payment:visa": "yes", "phone": "+1-514-940-0444", "website": "https://cafemyriade.com/"}}, {"type": "node", "id": 2047449789, "lat": 45.5310813, "lon": -73.6079774, "tags": {"addr:housenumber": "59", "addr:postcode": "H2S 1R1", "addr:street": "Beaubien", "amenity": "cafe", "diet:vegetarian": "yes", "email": "vieux.velo@gmail.com", "name": "Le Vieux V\u00e9lo", "opening_hours": "Mo-Su 09:00-15:00", "phone": "+1-514-439-5595"}}, {"type": "node", "id": 2047454765, "lat": 45.5246445, "lon": -73.604447, "tags": {"addr:housenumber": "214", "addr:postcode": "H2T 2K4", "addr:street": "Bernard Ouest", "amenity": "cafe", "check_date": "2023-09-27", "name": "La Lumi\u00e8re du Mile-End", "opening_hours": "Th-Tu 11:00-20:00", "phone": "+1-514-658-4949", "website": "http://www.lalumieredumileend.com"}}, {"type": "node", "id": 2079875311, "lat": 45.519451, "lon": -73.615608, "tags": {"amenity": "cafe", "name": "Le Paltoquet"}}, {"type": "node", "id": 2084790270, "lat": 45.5247204, "lon": -73.6044238, "tags": {"addr:housenumber": "206", "addr:street": "Rue Bernard", "amenity": "cafe", "diet:vegetarian": "yes", "internet_access": "yes", "name": "Le D\u00e9panneur Caf\u00e9", "opening_hours": "Mo-Su 07:00-18:00", "phone": "+1-514-271-9357"}}, {"type": "node", "id": 2131333481, "lat": 45.550218, "lon": -73.534168, "tags": {"addr:city": "Montr\u00e9al", "addr:housenumber": "4264", "addr:postcode": "H1V 1X6", "addr:province": "QC", "addr:street": "Rue Sainte-Catherine Est", "addr:suburb": "Mercier-Hochelaga-Maisonneuve", "amenity": "cafe", "disused:amenity": "restaurant", "disused:internet_access": "wlan", "disused:internet_access:fee": "no", "disused:internet_access:operator": "\u00cele Sans Fil", "disused:name": "Bistro In Vivo", "disused:phone": "+1 514 223 8116", "disused:website": "http://www.bistroinvivo.coop", "indoor_seating": "yes", "name": "Bistro le Ste-Cath", "outdoor_seating": "yes", "source": "survey", "website": "https://www.stecath.com/"}}, {"type": "node", "id": 2151306022, "lat": 45.4941499, "lon": -73.6386627, "tags": {"addr:city": "Montr\u00e9al", "addr:housenumber": "4819A", "addr:postcode": "H3W 1J2", "addr:province": "Qu\u00e9bec", "addr:street": "Avenue Van Horne", "amenity": "cafe", "brand": "Tim Hortons", "brand:wikidata": "Q175106", "brand:wikipedia": "en:Tim Hortons", "cuisine": "coffee_shop", "name": "Tim Hortons", "takeaway": "yes"}}, {"type": "node", "id": 2151310730, "lat": 45.4946118, "lon": -73.6376985, "tags": {"addr:city": "Montr\u00e9al", "addr:housenumber": "4795", "addr:postcode": "H3W 1H8", "addr:province": "QC", "addr:street": "Avenue Van Horne", "addr:suburb": "C\u00f4te-des-Neiges\u2013NDG", "amenity": "cafe", "brand": "Second Cup", "brand:wikidata": "Q862180", "brand:wikipedia": "en:Second Cup", "cuisine": "coffee_shop", "internet_access": "wlan", "name": "Second Cup", "outdoor_seating": "seasonal", "phone": "+1 514 735 1098", "takeaway": "yes", "website": "https://secondcup.com/"}}, {"type": "node", "id": 2175600497, "lat": 45.5095392, "lon": -73.5741549, "tags": {"addr:housenumber": "3506", "addr:street": "Avenue du Parc", "amenity": "cafe", "name": "Chai The Lounge", "wheelchair": "yes"}}, {"type": "node", "id": 2175713420, "lat": 45.5091955, "lon": -73.5736977, "tags": {"addr:city": "Montr\u00e9al", "addr:housenumber": "3498", "addr:postcode": "H2X 2H5", "addr:province": "QC", "addr:street": "Avenue du Parc", "addr:suburb": "Le Plateau-Mont-Royal", "amenity": "cafe", "check_date": "2024-02-04", "cuisine": "coffee_shop", "internet_access": "wlan", "name": "Milton B", "opening_hours": "24/7", "phone": "+1-514-379-1001", "takeaway": "yes", "wheelchair": "yes"}}, {"type": "node", "id": 2249503937, "lat": 45.5148951, "lon": -73.6454459, "tags": {"addr:housenumber": "1777", "addr:street": "Boulevard Graham", "amenity": "cafe", "cuisine": "coffee_shop;ice_cream", "internet_access": "wlan", "name": "Cafe Leonidas", "phone": "+1-514-649-7490"}}, {"type": "node", "id": 2260946116, "lat": 45.4275052, "lon": -73.6107453, "tags": {"amenity": "cafe", "brand": "Tim Hortons", "brand:wikidata": "Q175106", "brand:wikipedia": "en:Tim Hortons", "cuisine": "coffee_shop", "internet_access": "wlan", "internet_access:fee": "no", "name": "Tim Hortons", "takeaway": "yes"}}, {"type": "node", "id": 2301968746, "lat": 45.4363878, "lon": -73.6242979, "tags": {"amenity": "cafe", "name": "Riccia Caff\u00e8"}}, {"type": "node", "id": 2305939158, "lat": 45.5235157, "lon": -73.600829, "tags": {"addr:housename": "Club Social", "addr:housenumber": "180", "addr:postcode": "H2T 2L4", "addr:street": "Saint Viateur", "amenity": "cafe", "cuisine": "spanish", "name": "Caf\u00e9 Club Social"}}, {"type": "node", "id": 2329700538, "lat": 45.5078413, "lon": -73.5600778, "tags": {"addr:housenumber": "10", "addr:street": "De La Gaucheti\u00e8re", "amenity": "cafe", "cuisine": "bubble_tea", "name": "Prestotea"}}, {"type": "node", "id": 2329975930, "lat": 45.5076635, "lon": -73.5600191, "tags": {"addr:city": "Montr\u00e9al", "addr:housenumber": "1023", "addr:street": "Rue Clark", "amenity": "cafe", "cuisine": "dessert", "level": "0", "name": "Marmelade de Sucre"}}, {"type": "node", "id": 2329982315, "lat": 45.5073103, "lon": -73.5607504, "tags": {"addr:city": "Montr\u00e9al", "addr:housenumber": "71a", "addr:street": "Rue de La Gaucheti\u00e8re Ouest", "amenity": "cafe", "cuisine": "bubble_tea", "internet_access": "no", "name": "L2"}}, {"type": "node", "id": 2342911097, "lat": 45.4978404, "lon": -73.5543536, "tags": {"addr:housenumber": "75", "addr:postcode": "H3C 2M6", "addr:street": "Queen", "amenity": "cafe", "name": "Pasta Caf\u00e9", "source": "witness location", "website": "http://www.pasta-cafe.com/"}}, {"type": "node", "id": 2342912024, "lat": 45.4967848, "lon": -73.5548647, "tags": {"addr:housenumber": "87", "addr:postcode": "H3C 2M7", "addr:street": "Rue Prince", "amenity": "cafe", "name": "Caf\u00e9 de la cit\u00e9", "source": "witness location", "website": "http://www.pasta-cafe.com/#bk10-frn"}}, {"type": "node", "id": 2406166812, "lat": 45.5195878, "lon": -73.6094124, "tags": {"addr:city": "Montr\u00e9al", "addr:housenumber": "1275", "addr:postcode": "H2V 1V8", "addr:province": "QC", "addr:street": "Avenue Bernard", "addr:suburb": "Outremont", "amenity": "cafe", "brand": "Second Cup", "brand:wikidata": "Q862180", "brand:wikipedia": "en:Second Cup", "check_date": "2023-11-16", "cuisine": "coffee_shop", "internet_access": "wlan", "level": "0", "name": "Second Cup", "opening_hours": "Mo-Fr 07:00-20:00; Sa 08:00-20:00; Su 08:00-19:00", "phone": "+1-514-271-6624", "takeaway": "yes", "website": "https://secondcup.com/", "wheelchair": "limited"}}, {"type": "node", "id": 2406177729, "lat": 45.5210965, "lon": -73.6145414, "tags": {"addr:city": "Montr\u00e9al", "addr:housenumber": "1317", "addr:postcode": "H2V 1K7", "addr:province": "Qu\u00e9bec", "addr:street": "Avenue Van Horne", "amenity": "cafe", "changing_table": "no", "check_date": "2023-11-06", "cuisine": "coffee_shop", "internet_access": "wlan", "internet_access:fee": "customers", "name": "Caffe Dante", "opening_hours": "Mo-Fr 08:00-17:00; Sa 09:00-17:00; Su off", "outdoor_seating": "no", "wheelchair": "no"}}, {"type": "node", "id": 2408150315, "lat": 45.5216622, "lon": -73.6140986, "tags": {"addr:city": "Montr\u00e9al", "addr:housenumber": "1273", "addr:postcode": "H2V 1K5", "addr:province": "Qu\u00e9bec", "addr:street": "Avenue Van Horne", "air_conditioning": "yes", "amenity": "cafe", "indoor_seating": "yes", "internet_access": "yes", "internet_access:fee": "customers", "internet_access:password": "espresso", "internet_access:ssid": "Cafe Guest", "name": "Caf\u00e9 Navire", "outdoor_seating": "false", "phone": "+1-514-495-9734", "website": "https://www.instagram.com/cafenavire/", "wheelchair": "no"}}, {"type": "node", "id": 2420001046, "lat": 45.5558974, "lon": -73.5511125, "tags": {"addr:city": "Montr\u00e9al", "addr:housenumber": "4545", "addr:postcode": "H1V 3N7", "addr:street": "Avenue Pierre de Coubertin", "amenity": "cafe", "contact:phone": "+1-514-903-1005", "contact:website": "http://www.stationinvivo.coop/", "cuisine": "coffee_shop", "indoor_seating": "yes", "internet_access": "wlan", "name": "Station In Vivo", "opening_hours": "07:00-19:00", "outdoor_seating": "no", "smoking": "no"}}, {"type": "node", "id": 2420020468, "lat": 45.5520848, "lon": -73.5553432, "tags": {"amenity": "cafe", "brand": "Tim Hortons", "brand:wikidata": "Q175106", "brand:wikipedia": "en:Tim Hortons", "cuisine": "coffee_shop", "internet_access": "wlan", "internet_access:fee": "no", "name": "Tim Hortons", "takeaway": "yes"}}, {"type": "node", "id": 2422238973, "lat": 45.5217114, "lon": -73.5622074, "tags": {"addr:housenumber": "1251", "addr:street": "Ontario", "amenity": "cafe", "name": "Caf\u00e9 Pamplemousse"}}, {"type": "node", "id": 2427396844, "lat": 45.6156779, "lon": -73.5563766, "tags": {"addr:city": "Montr\u00e9al", "addr:housenumber": "8790", "addr:street": "Boulevard M\u00e9tropolitain", "amenity": "cafe", "cuisine": "coffee_shop;sandwich", "internet_access": "yes", "name": "cafe QG", "source": "NRCan-CanVec-10.0"}}, {"type": "node", "id": 2428616547, "lat": 45.5122916, "lon": -73.569325, "tags": {"addr:city": "Montr\u00e9al", "addr:housenumber": "8", "addr:street": "Rue Sherbrooke Ouest", "amenity": "cafe", "check_date": "2023-08-06", "name": "Caf\u00e9 Origine", "source": "NRCan-CanVec-10.0"}}, {"type": "node", "id": 2429684389, "lat": 45.5417293, "lon": -73.6075713, "tags": {"addr:city": "Montr\u00e9al", "addr:housenumber": "1206", "addr:street": "Rue B\u00e9langer", "amenity": "cafe", "internet_access": "wlan", "name": "Caf\u00e9 de La Roche", "opening_hours": "Mo-Fr 07:00-19:00; Sa 09:00-17:30", "outdoor_seating": "yes", "phone": "+1-514-713-0708", "smoking": "no", "source": "NRCan-CanVec-10.0;https://cafedelaroche.business.site", "takeaway": "yes", "website": "https://www.facebook.com/cafe.delaroche1206/"}}, {"type": "node", "id": 2429722087, "lat": 45.4971849, "lon": -73.5808564, "tags": {"addr:city": "Montr\u00e9al", "addr:housenumber": "1490", "addr:street": "Rue Sherbrooke Ouest", "amenity": "cafe", "name": "\u00d4 Plaisirs Gourmands", "opening_hours": "Mo-Fr 07:30-19:00; Sa,Su 07:30-17:00", "shop": "bakery"}}, {"type": "node", "id": 2429724983, "lat": 45.5138842, "lon": -73.562968, "tags": {"amenity": "cafe", "internet_access": "yes", "internet_access:fee": "no", "name": "Bar Salon", "old_name": "Caf\u00e9-Bar de la Cin\u00e9math\u00e8que qu\u00e9b\u00e9coise", "opening_hours": "Mo 10:15-18:00; Tu-Fr 10:15-22:00", "outdoor_seating": "yes", "phone": "+1-514-842-9763", "toilets:wheelchair": "yes", "website": "https://www.cinematheque.qc.ca/fr/services/cafe-bar", "wheelchair": "yes"}}, {"type": "node", "id": 2431678515, "lat": 45.5301869, "lon": -73.6288336, "tags": {"addr:city": "Montr\u00e9al", "addr:housenumber": "7669", "addr:postcode": "H3N 2B7", "addr:street": "Avenue Querbes", "amenity": "cafe", "name": "caf\u00e9 la place commune", "name:fr": "caf\u00e9 la place commune", "source": "NRCan-CanVec-10.0", "website": "http://www.laplacecommune.com"}}, {"type": "node", "id": 2437800192, "lat": 45.4318652, "lon": -73.6728674, "tags": {"addr:city": "Montr\u00e9al", "addr:housenumber": "1000", "addr:street": "Boulevard Saint-Joseph", "amenity": "cafe", "name": "Comptoir St-Jo", "source": "NRCan-CanVec-10.0"}}, {"type": "node", "id": 2439191519, "lat": 45.4768791, "lon": -73.5883169, "tags": {"addr:city": "Montr\u00e9al", "addr:housenumber": "4271", "addr:postcode": "H4C 1J7", "addr:street": "Rue Saint-Jacques", "amenity": "cafe", "contact:facebook": "LaLuncheonettemtl", "contact:instagram": "luncheonettemtl", "cuisine": "bagel;breakfast;cake;coffee_shop;sandwich", "email": "info@lunchmtl.com", "internet_access": "wlan", "level": "0", "name": "Luncheonette", "name:fr": "La Luncheonette", "opening_hours": "Mo-Fr 07:30-16:00; Sa-Su 11:00-15:00", "phone": "+1 (438) 386-0565", "source": "NRCan-CanVec-10.0", "website": "https://lunchmtl.com"}}, {"type": "node", "id": 2440437488, "lat": 45.429602, "lon": -73.6333033, "tags": {"addr:city": "Lasalle", "addr:street": "Boulevard Dollard", "amenity": "cafe", "internet_access": "wlan", "name": "Caf\u00e9 Choco-Latt\u00e9", "source": "local_knowledge", "wheelchair": "yes"}}, {"type": "node", "id": 2443756929, "lat": 45.5193983, "lon": -73.5554906, "tags": {"addr:city": "Montr\u00e9al", "addr:street": "Rue Sainte-Catherine Est", "amenity": "cafe", "brand": "Starbucks", "brand:wikidata": "Q37158", "cuisine": "coffee_shop", "name": "Starbucks", "official_name": "Starbucks Coffee", "source": "local_knowledge", "takeaway": "yes", "wheelchair": "no"}}, {"type": "node", "id": 2456300128, "lat": 45.5344378, "lon": -73.5989819, "tags": {"addr:city": "Montr\u00e9al", "addr:housenumber": "5985", "addr:postcode": "H2S 2L8", "addr:province": "QC", "addr:street": "Rue Saint-Hubert", "amenity": "cafe", "cuisine": "coffee_shop;regional", "name": "Le Fixe", "opening_hours": "We-Sa 9:00-16:00, Su 10:00-16:00", "outdoor_seating": "yes", "phone": "+1-514-270-6667", "website": "http://www.cafefixe.ca/"}}, {"type": "node", "id": 2459733375, "lat": 45.4754126, "lon": -73.6232491, "tags": {"addr:city": "Montr\u00e9al", "addr:housenumber": "5629", "addr:postcode": "H4A 1E2", "addr:street": "Avenue de Monkland", "amenity": "cafe", "cuisine": "cafe", "internet_access": "wlan", "internet_access:fee": "no", "name": "Caf\u00e9 Pigeon", "outdoor_seating": "summer", "source": "local knowledge", "wheelchair": "limited"}}, {"type": "node", "id": 2459746290, "lat": 45.4762272, "lon": -73.6225734, "tags": {"addr:city": "Montr\u00e9al", "addr:housenumber": "5557", "addr:postcode": "H4A 1E1", "addr:province": "QC", "addr:street": "Avenue de Monkland", "addr:suburb": "C\u00f4te-des-Neiges\u2013NDG", "amenity": "cafe", "internet_access": "wlan", "name": "Rockaberry", "phone": "+1 514 487 6252", "source": "local_knowledge", "website": "https://www.rockaberry.ca/"}}, {"type": "node", "id": 2479541436, "lat": 45.4654786, "lon": -73.5665754, "tags": {"addr:city": "Montr\u00e9al", "addr:housenumber": "3852", "addr:postcode": "H3G 4M6", "addr:street": "Rue Wellington", "amenity": "cafe", "contact:facebook": "https://www.facebook.com/pages/Station-W/154300254764417", "cuisine": "coffee_shop", "drive_through": "no", "internet_access": "wlan", "name": "Station W", "opening_hours": "Mo-We 7:00 -21:00,Sa-Su 8:00-17:00", "outdoor_seating": "no", "phone": "+1-514-508-9768", "smoking": "outside", "source": "local_knowledge", "takeaway": "yes", "website": "https://www.station-w.com/", "wheelchair": "no"}}, {"type": "node", "id": 2486665547, "lat": 45.580495, "lon": -73.532072, "tags": {"addr:city": "Montr\u00e9al", "addr:street": "Rue Hochelaga", "amenity": "cafe", "atm": "yes", "brand": "Tim Hortons", "brand:wikidata": "Q175106", "cuisine": "coffee_shop", "drive_through": "yes", "indoor_seating": "yes", "internet_access": "wlan", "internet_access:fee": "no", "name": "Tim Hortons", "opening_hours": "24/7", "outdoor_seating": "no", "smoking": "outside", "source": "local_knowledge", "takeaway": "yes", "wheelchair": "yes"}}, {"type": "node", "id": 2494028339, "lat": 45.508962, "lon": -73.564794, "tags": {"amenity": "cafe", "brand": "Tim Hortons", "brand:wikidata": "Q175106", "brand:wikipedia": "en:Tim Hortons", "cuisine": "coffee_shop", "drive_through": "no", "name": "Tim Hortons", "takeaway": "yes"}}, {"type": "node", "id": 2495365614, "lat": 45.4582354, "lon": -73.5676001, "tags": {"addr:city": "Verdun", "addr:housenumber": "4646", "addr:postcode": "H4G 1W9", "addr:street": "Rue Wellington", "amenity": "cafe", "cuisine": "tea", "name": "Le cha noir", "opening_hours": "Mo-Fr 11:00-21:30; Sa-Su 10:00-21:30", "phone": "+1-514-769-1242", "website": "https://cha-noir.com"}}, {"type": "node", "id": 2496131044, "lat": 45.5394804, "lon": -73.6132627, "tags": {"addr:housenumber": "600", "addr:postcode": "H2R 3A8", "addr:province": "QC", "addr:street": "Rue Jean-Talon Est", "addr:suburb": "Villeray-Saint-Michel-PE", "amenity": "cafe", "check_date:opening_hours": "2024-03-15", "internet_access": "wlan", "name": "Cafe Bistro El Mundo", "opening_hours": "Mo-Su 06:00-24:00", "phone": "+1 514 509 0907"}}, {"type": "node", "id": 2496131045, "lat": 45.571966, "lon": -73.599336, "tags": {"addr:housenumber": "7870", "addr:postcode": "H1R 2Y5", "addr:province": "QC", "addr:street": "Rue Provencher", "addr:suburb": "Saint-Leonard", "amenity": "cafe", "internet_access": "wlan", "name": "Caf\u00e9 Domenica In", "phone": "+1 514 728 1315"}}, {"type": "node", "id": 2496131046, "lat": 45.5222052, "lon": -73.5912248, "tags": {"addr:housenumber": "4910", "addr:postcode": "H2T 1R5", "addr:province": "QC", "addr:street": "Boulevard Saint-Laurent", "addr:suburb": "Le Plateau-Mont-Royal", "amenity": "cafe", "brand": "Caf\u00e9 D\u00e9p\u00f4t", "brand:wikidata": "Q64924449", "cuisine": "coffee_shop;cake;bagel;bistro", "internet_access": "wlan", "name": "Caf\u00e9 D\u00e9p\u00f4t", "phone": "+1 514 284 6866", "takeaway": "yes", "website": "https://www.cafedepot.com/", "wheelchair": "yes"}}, {"type": "node", "id": 2496131049, "lat": 45.598625, "lon": -73.590549, "tags": {"addr:housenumber": "8593", "addr:postcode": "H1P 2C6", "addr:province": "QC", "addr:street": "Boulevard Langelier", "addr:suburb": "Saint-Leonard", "amenity": "cafe", "internet_access": "wlan", "internet_access:fee": "no", "internet_access:operator": "\u00cele Sans Fil", "name": "Caf\u00e9 Gervasi", "phone": "+1 514 328 0556"}}, {"type": "node", "id": 2496131051, "lat": 45.598356, "lon": -73.590914, "tags": {"addr:housenumber": "8600", "addr:postcode": "H1P 2Y7", "addr:province": "QC", "addr:street": "Boulevard Langelier", "addr:suburb": "Saint-Leonard", "amenity": "cafe", "internet_access": "wlan", "internet_access:fee": "no", "internet_access:operator": "\u00cele Sans Fil", "name": "Caf\u00e9 Victoria's", "phone": "+1 514 327 7877"}}, {"type": "node", "id": 2496131052, "lat": 45.5238829, "lon": -73.5865558, "tags": {"addr:housenumber": "4750", "addr:postcode": "H2T 2C8", "addr:province": "QC", "addr:street": "Avenue Henri-Julien", "addr:suburb": "Le Plateau-Mont-Royal", "amenity": "cafe", "internet_access": "wlan", "name": "Caf\u00e9 Vienne", "phone": "+1 514 282 3369", "website": "https://www.cafevienne.com/"}}, {"type": "node", "id": 2496131053, "lat": 45.5302163, "lon": -73.5988739, "tags": {"addr:housenumber": "5800", "addr:postcode": "H2S 3L5", "addr:province": "QC", "addr:street": "Rue Saint-Denis", "addr:suburb": "Rosemont-Petite-Patrie", "amenity": "cafe", "internet_access": "wlan", "internet_access:fee": "no", "internet_access:ssid": "Cafe Vienne-Clients", "name": "Caf\u00e9 Vienne", "phone": "+1 514 274 2666", "website": "https://www.cafevienne.com/"}}, {"type": "node", "id": 2496131055, "lat": 45.5543111, "lon": -73.6240658, "tags": {"addr:housenumber": "1611", "addr:postcode": "H2M 2P2", "addr:province": "QC", "addr:street": "Boulevard Cr\u00e9mazie Est", "addr:suburb": "Ahuntsic-Cartierville", "amenity": "cafe", "internet_access": "wlan", "name": "Caf\u00e9 Vienne", "phone": "+1 514 382 6382", "website": "https://www.cafevienne.com/"}}, {"type": "node", "id": 2496131056, "lat": 45.5977072, "lon": -73.5695089, "tags": {"addr:housenumber": "7100", "addr:postcode": "H1M 3S3", "addr:province": "QC", "addr:street": "Rue Jean Talon Est", "addr:suburb": "Mercier-Hochelaga-Maisonneuve", "amenity": "cafe", "internet_access": "wlan", "internet_access:fee": "no", "name": "Caf\u00e9 Vienne", "phone": "+1 514 354 1793", "website": "https://www.cafevienne.com/"}}, {"type": "node", "id": 2496131072, "lat": 45.5880083, "lon": -73.5981963, "tags": {"addr:housenumber": "8492", "addr:postcode": "H1R 2A5", "addr:province": "QC", "addr:street": "Boulevard Lacordaire", "addr:suburb": "Saint-Leonard", "amenity": "cafe", "internet_access": "wlan", "name": "Cheaters Premium Dessert Bar", "phone": "+1-514-323-6530"}}, {"type": "node", "id": 2496131109, "lat": 45.5926, "lon": -73.541289, "tags": {"addr:housenumber": "7275", "addr:postcode": "H1N 1E9", "addr:province": "QC", "addr:street": "Rue Sherbrooke Est", "addr:suburb": "Mercier-Hochelaga-Maisonneuve", "amenity": "cafe", "brand": "Second Cup", "brand:wikidata": "Q862180", "cuisine": "coffee_shop", "internet_access": "wlan", "name": "Second Cup", "phone": "+1 514 351 9002", "takeaway": "yes", "website": "https://secondcup.com/"}}, {"type": "node", "id": 2496360533, "lat": 45.6017869, "lon": -73.5649187, "tags": {"addr:housenumber": "7999", "addr:postcode": "H1M 1W6", "addr:province": "QC", "addr:street": "Boulevard des Galeries d'Anjou", "addr:suburb": "Mercier-Hochelaga-Maisonneuve", "amenity": "cafe", "brand": "Caf\u00e9 D\u00e9p\u00f4t", "brand:wikidata": "Q64924449", "cuisine": "coffee_shop;cake;bagel;bistro", "internet_access": "wlan", "name": "Caf\u00e9 D\u00e9p\u00f4t", "phone": "+1 514 493 6185", "takeaway": "yes", "website": "https://www.cafedepot.com/"}}, {"type": "node", "id": 2496360560, "lat": 45.6017033, "lon": -73.564762, "tags": {"addr:housenumber": "7999", "addr:postcode": "H1M 1W6", "addr:province": "QC", "addr:street": "Boulevard des Galeries d'Anjou", "addr:suburb": "Mercier-Hochelaga-Maisonneuve", "amenity": "cafe", "brand": "Second Cup", "brand:wikidata": "Q862180", "cuisine": "coffee_shop", "internet_access": "wlan", "name": "Second Cup", "phone": "+1 514 352 8151", "takeaway": "yes", "website": "https://secondcup.com/"}}, {"type": "node", "id": 2496703812, "lat": 45.5532886, "lon": -73.6622577, "tags": {"addr:city": "Montr\u00e9al", "addr:housenumber": "545", "addr:postcode": "H3L 1G6", "addr:province": "QC", "addr:street": "Rue Fleury Est", "addr:suburb": "Ahuntsic-Cartierville", "amenity": "cafe", "internet_access": "wlan", "internet_access:fee": "no", "internet_access:operator": "\u00cele Sans Fil", "name": "Caf\u00e9 de Da de la biblioth\u00e8que d'Ahuntsic", "phone": "+1 514 872 5674"}}, {"type": "node", "id": 2496703813, "lat": 45.5811067, "lon": -73.6518191, "tags": {"addr:housenumber": "2827", "addr:postcode": "H2B 1V9", "addr:province": "QC", "addr:street": "Boulevard Henri-Bourassa Est", "addr:suburb": "Ahuntsic-Cartierville", "amenity": "cafe", "internet_access": "wlan", "name": "Caf\u00e9 Phazes", "phone": "+1 514 385 9912", "website": "www.cafephazes.com"}}, {"type": "node", "id": 2496896383, "lat": 45.527231, "lon": -73.61623, "tags": {"addr:housenumber": "400", "addr:postcode": "H2V 1A5", "addr:province": "QC", "addr:street": "Avenue Atlantic", "addr:suburb": "Outremont", "amenity": "cafe", "internet_access": "wlan", "name": "Caf\u00e9 Vienne", "phone": "+1 514 278 4192", "website": "https://www.cafevienne.com/"}}, {"type": "node", "id": 2496896384, "lat": 45.5232663, "lon": -73.6050462, "tags": {"addr:housenumber": "5718", "addr:postcode": "H2V 4H1", "addr:province": "QC", "addr:street": "Avenue du Parc", "addr:suburb": "Outremont", "amenity": "cafe", "internet_access": "wlan", "name": "EM Caf\u00e9", "phone": "+1 514 303 5735", "website": "www.emcafe.ca"}}, {"type": "node", "id": 2496911284, "lat": 45.5259423, "lon": -73.5987455, "tags": {"addr:housenumber": "5505", "addr:postcode": "H2T 1L6", "addr:province": "QC", "addr:street": "Boulevard Saint-Laurent , suite 2001", "addr:suburb": "Le Plateau-Mont-Royal", "amenity": "cafe", "internet_access": "wlan", "name": "Caf\u00e9 Vienne", "phone": "+1 514 270 1515", "website": "https://www.cafevienne.com/"}}, {"type": "node", "id": 2500160321, "lat": 45.5130998, "lon": -73.7113621, "tags": {"addr:housenumber": "2505", "addr:postcode": "H4R 3C8", "addr:province": "QC", "addr:street": "Rue des Nations, suite 101", "addr:suburb": "Saint-Laurent", "amenity": "cafe", "internet_access": "wlan", "name": "Caf\u00e9 D\u00e9p\u00f4t Bombardier", "phone": "+1 514 332 1255", "website": "https://www.cafedepot.com/"}}, {"type": "node", "id": 2500160365, "lat": 45.4952947, "lon": -73.7371449, "tags": {"addr:housenumber": "4983", "addr:postcode": "H4R 2N9", "addr:province": "QC", "addr:street": "Rue Levy", "addr:suburb": "Saint-Laurent", "amenity": "cafe", "internet_access": "wlan", "name": "Van Houtte", "phone": "+1 514 331 0332", "website": "https://www.vanhoutte.com/"}}, {"type": "node", "id": 2500174458, "lat": 45.4967551, "lon": -73.6594078, "tags": {"addr:housenumber": "5345", "addr:postcode": "H4P 1L9", "addr:province": "QC", "addr:street": "Rue Ferrier", "addr:suburb": "Mont-Royal", "amenity": "cafe", "internet_access": "wlan", "name": "Java U", "phone": "+1 514 737 2220", "website": "https://www.java-u.com/"}}, {"type": "node", "id": 2500174459, "lat": 45.497323, "lon": -73.665932, "tags": {"addr:housenumber": "5475", "addr:postcode": "H4P 1J3", "addr:province": "QC", "addr:street": "Avenue Royalmount", "addr:suburb": "Mont-Royal", "amenity": "cafe", "internet_access": "wlan", "name": "Java U", "phone": "+1 514 341 8818", "website": "https://www.java-u.com/"}}, {"type": "node", "id": 2500240134, "lat": 45.5019317, "lon": -73.6381447, "tags": {"amenity": "cafe", "cuisine": "sandwich;bagel", "internet_access": "wlan", "name": "Maison Bagel"}}, {"type": "node", "id": 2500240137, "lat": 45.4868517, "lon": -73.5869309, "tags": {"addr:housenumber": "4126", "addr:postcode": "H3Z 1P4", "addr:province": "QC", "addr:street": "Rue Sainte-Catherine Ouest", "addr:suburb": "Westmount", "amenity": "cafe", "internet_access": "wlan", "internet_access:fee": "no", "internet_access:operator": "\u00cele Sans Fil", "name": "Caf\u00e9 London Bus", "phone": "+1 514 931 5571", "website": "www.cafelondonbus.com"}}, {"type": "node", "id": 2500240147, "lat": 45.487372, "lon": -73.586571, "tags": {"addr:housenumber": "4104", "addr:postcode": "H3Z 1P2", "addr:province": "QC", "addr:street": "Rue Sainte-Catherine Ouest", "addr:suburb": "Westmount", "amenity": "cafe", "internet_access": "wlan", "name": "Java U", "phone": "+1 514 938 8188", "website": "https://www.java-u.com/"}}, {"type": "node", "id": 2500240186, "lat": 45.4561072, "lon": -73.6408899, "tags": {"addr:city": "Montr\u00e9al", "addr:housenumber": "7345", "addr:postcode": "H4B 1R9", "addr:province": "QC", "addr:street": "Rue Sherbrooke Ouest", "addr:suburb": "C\u00f4te-des-Neiges\u2013NDG", "amenity": "cafe", "brand": "Second Cup", "brand:wikidata": "Q862180", "brand:wikipedia": "en:Second Cup", "cuisine": "coffee_shop", "internet_access": "wlan", "name": "Second Cup", "opening_hours": "Mo-Fr 06:30-23:00, Sa-Su 07:00-23:00", "outdoor_seating": "yes", "phone": "+1-514-509-1624", "smoking": "no", "takeaway": "yes", "website": "https://secondcup.com/"}}, {"type": "node", "id": 2500240187, "lat": 45.4760701, "lon": -73.6221065, "tags": {"addr:housenumber": "5550", "addr:postcode": "H4A 1C9", "addr:province": "QC", "addr:street": "Avenue de Monkland", "addr:suburb": "C\u00f4te-des-Neiges\u2013NDG", "amenity": "cafe", "brand": "Second Cup", "brand:wikidata": "Q862180", "brand:wikipedia": "en:Second Cup", "cuisine": "coffee_shop", "internet_access": "wlan", "name": "Second Cup", "phone": "+1 514 487 9481", "takeaway": "yes", "website": "https://secondcup.com/"}}, {"type": "node", "id": 2500240189, "lat": 45.4876179, "lon": -73.5915177, "tags": {"addr:housenumber": "1386", "addr:postcode": "H3Z 2B1", "addr:province": "QC", "addr:street": "Avenue Greene", "addr:suburb": "Westmount", "amenity": "cafe", "name": "Avenue G", "opening_hours": "Mo-Fr 07:00-18:00, Sa-Su 07:00-17:00", "phone": "514-658-8787", "website": "https://www.facebook.com/avenuegmtl/"}}, {"type": "node", "id": 2501227164, "lat": 45.4981211, "lon": -73.62662, "tags": {"addr:city": "Montr\u00e9al", "addr:housenumber": "5620", "addr:postcode": "H3T 1Z2", "addr:province": "Qu\u00e9bec", "addr:street": "Chemin de la C\u00f4te-des-Neiges", "addr:suburb": "C\u00f4te-des-Neiges\u2013NDG", "amenity": "cafe", "internet_access": "wlan", "name": "Java U", "outdoor_seating": "seasonal", "phone": "+1 514 344 2666", "website": "https://www.java-u.com/"}}, {"type": "node", "id": 2501227166, "lat": 45.4956003, "lon": -73.6209905, "tags": {"addr:city": "Montr\u00e9al", "addr:housenumber": "5206", "addr:postcode": "H3T 1X8", "addr:province": "Qu\u00e9bec", "addr:street": "Chemin de la C\u00f4te-des-Neiges", "addr:suburb": "C\u00f4te-des-Neiges\u2013NDG", "amenity": "cafe", "brand": "Second Cup", "brand:wikidata": "Q862180", "brand:wikipedia": "en:Second Cup", "cuisine": "coffee_shop", "internet_access": "wlan", "internet_access:fee": "no", "name": "Second Cup", "opening_hours": "24/7", "outdoor_seating": "seasonal", "phone": "+1 514 733 2710", "takeaway": "yes", "website": "https://secondcup.com/"}}, {"type": "node", "id": 2501227168, "lat": 45.4978862, "lon": -73.6288187, "tags": {"amenity": "cafe", "brand": "Second Cup", "brand:wikidata": "Q862180", "brand:wikipedia": "en:Second Cup", "cuisine": "coffee_shop", "internet_access": "wlan", "name": "Second Cup", "phone": "+1 514 340 1483", "takeaway": "yes", "website": "https://secondcup.com/"}}, {"type": "node", "id": 2501250651, "lat": 45.4549331, "lon": -73.5945144, "tags": {"addr:housenumber": "6396", "addr:postcode": "H4E 3H9", "addr:province": "QC", "addr:street": "Boulevard Monk", "addr:suburb": "Le Sud Ouest", "amenity": "cafe", "internet_access": "wlan", "internet_access:fee": "no", "name": "Cafe Bistro Monk", "phone": "+1 514 831 0254", "website": "www.cafebistromonk.com"}}, {"type": "node", "id": 2501250652, "lat": 45.4673162, "lon": -73.5419289, "tags": {"addr:housenumber": "38", "addr:postcode": "H3E 1T8", "addr:province": "QC", "addr:street": "Place du Commerce", "addr:suburb": "Verdun", "amenity": "cafe", "internet_access": "wlan", "internet_access:fee": "no", "name": "Caf\u00e9 Vienne", "phone": "+1 514 767 6375", "website": "https://www.cafevienne.com/"}}, {"type": "node", "id": 2501250661, "lat": 45.4476819, "lon": -73.6125277, "tags": {"addr:city": "Lasalle", "addr:housenumber": "7077", "addr:postcode": "H8N 1X1", "addr:province": "QC", "addr:street": "Boulevard Newman", "addr:suburb": "LaSalle", "amenity": "cafe", "internet_access": "wlan", "name": "Timothy's caf\u00e9", "phone": "+1 514 365 4427", "website": "www.timothys.ca"}}, {"type": "node", "id": 2501280950, "lat": 45.5094591, "lon": -73.5740146, "tags": {"addr:housenumber": "3500", "addr:postcode": "H2X 2H7", "addr:province": "QC", "addr:street": "Avenue du Parc", "addr:suburb": "Le Plateau-Mont-Royal", "amenity": "cafe", "internet_access": "wlan", "internet_access:fee": "no", "internet_access:operator": "\u00cele Sans Fil", "name": "Cafe Bistro El Mundo", "phone": "+1 514 303 8866"}}, {"type": "node", "id": 2501280951, "lat": 45.5210401, "lon": -73.5991284, "tags": {"addr:housenumber": "5263", "addr:postcode": "H2V 4G9", "addr:province": "QC", "addr:street": "Avenue du Parc", "addr:suburb": "Outremont", "amenity": "cafe", "check_date": "2023-08-10", "internet_access": "wlan", "name": "Caffe In Gamba", "payment:mastercard": "yes", "payment:visa": "yes", "phone": "+1 514 656 6852", "website": "https://cafeingamba.com/", "wheelchair": "limited"}}, {"type": "node", "id": 2501280953, "lat": 45.5467242, "lon": -73.6850012, "tags": {"addr:housenumber": "450", "addr:postcode": "H3L 3W3", "addr:province": "QC", "addr:street": "Boulevard Gouin Ouest", "addr:suburb": "Ahuntsic-Cartierville", "amenity": "cafe", "internet_access": "wlan", "name": "Caf\u00e9 Vienne", "website": "https://www.cafevienne.com/"}}, {"type": "node", "id": 2501999442, "lat": 45.5509569, "lon": -73.5338232, "tags": {"addr:city": "Montr\u00e9al", "addr:housenumber": "4316", "addr:postcode": "H1V 1X9", "addr:street": "Rue Sainte-Catherine Est", "amenity": "cafe", "indoor_seating": "yes", "name": "Supernat", "outdoor_seating": "no", "source": "survey"}}, {"type": "node", "id": 2501999454, "lat": 45.5507613, "lon": -73.5339397, "tags": {"addr:housenumber": "4300", "addr:postcode": "H1V 1X9", "addr:street": "Rue Sainte-Catherine Est", "amenity": "cafe", "indoor_seating": "yes", "name": "Caf\u00e9 traiteur Yves Grenier", "outdoor_seating": "no", "phone": "+1 514 521 8110", "source": "survey", "website": "https://www.traiteuryvesgrenier.com/"}}, {"type": "node", "id": 2503429164, "lat": 45.5492003, "lon": -73.5911689, "tags": {"addr:housenumber": "2522", "addr:postcode": "H1Y 1G2", "addr:province": "QC", "addr:street": "Rue Beaubien Est", "addr:suburb": "Rosemont-Petite-Patrie", "amenity": "cafe", "diet:vegan": "yes", "diet:vegetarian": "yes", "indoor_seating": "yes", "internet_access": "wlan", "internet_access:fee": "no", "name": "La Brass\u00e9e Caf\u00e9", "outdoor_seating": "street", "payment:credit_cards": "yes", "payment:debit_cards": "yes", "phone": "+1 514 376 8265", "self_service": "yes", "shop": "laundry", "website": "https://www.labrassee.cafe/", "wheelchair": "yes"}}, {"type": "node", "id": 2505434857, "lat": 45.5524841, "lon": -73.5400045, "tags": {"addr:city": "Montr\u00e9al", "addr:housenumber": "4299", "addr:postcode": "H1V 1K4", "addr:province": "QC", "addr:street": "Rue Ontario Est", "amenity": "cafe", "diet:vegetarian": "yes", "indoor_seating": "yes", "name": "Canard Caf\u00e9", "outdoor_seating": "yes", "source": "survey"}}, {"type": "node", "id": 2510769545, "lat": 45.4985458, "lon": -73.6268676, "tags": {"addr:city": "Montr\u00e9al", "addr:housenumber": "5647", "addr:province": "Qu\u00e9bec", "addr:street": "Chemin de la C\u00f4te-des-Neiges", "amenity": "cafe", "cuisine": "bubble_tea", "level": "0", "name": "Coco"}}, {"type": "node", "id": 2513513499, "lat": 45.4919333, "lon": -73.5833836, "tags": {"amenity": "cafe", "name": "sufi caf\u00e9"}}, {"type": "node", "id": 2513514293, "lat": 45.489968, "lon": -73.5840232, "tags": {"amenity": "cafe", "brand": "Tim Hortons", "brand:wikidata": "Q175106", "brand:wikipedia": "en:Tim Hortons", "cuisine": "coffee_shop", "name": "Tim Hortons", "operator": "Restaurant Brands International Inc.", "takeaway": "yes", "website": "https://www.timhortons.com/", "wheelchair": "yes"}}, {"type": "node", "id": 2519344584, "lat": 45.4889089, "lon": -73.5863121, "tags": {"amenity": "cafe", "brand": "Tim Hortons", "brand:wikidata": "Q175106", "brand:wikipedia": "en:Tim Hortons", "cuisine": "coffee_shop", "name": "Tim Hortons", "operator": "Restaurant Brands International Inc.", "takeaway": "yes", "website": "https://www.timhortons.com/"}}, {"type": "node", "id": 2519380867, "lat": 45.4917424, "lon": -73.5819429, "tags": {"amenity": "cafe", "name": "Avesta"}}, {"type": "node", "id": 2519402795, "lat": 45.4908798, "lon": -73.584591, "tags": {"addr:city": "Montr\u00e9al", "addr:housenumber": "1445", "addr:street": "Rue Lambert-Closse", "amenity": "cafe", "cuisine": "cafe", "name": "Caf\u00e9 Shaughnessy"}}, {"type": "node", "id": 2519458253, "lat": 45.489423, "lon": -73.5851338, "tags": {"amenity": "cafe", "brand": "Starbucks", "brand:wikidata": "Q37158", "brand:wikipedia": "fr:Starbucks", "cuisine": "coffee_shop", "name": "Starbucks", "official_name": "Starbucks Coffee", "takeaway": "yes"}}, {"type": "node", "id": 2622991974, "lat": 45.5294575, "lon": -73.6225995, "tags": {"amenity": "cafe", "automatic_door": "yes", "brand": "Tim Hortons", "brand:wikidata": "Q175106", "brand:wikipedia": "en:Tim Hortons", "cuisine": "coffee_shop", "drive_through": "no", "entrance": "yes", "name": "Tim Hortons", "operator": "Restaurant Brands International Inc.", "takeaway": "yes", "wheelchair": "bad"}}, {"type": "node", "id": 2651302790, "lat": 45.4924388, "lon": -73.7096468}, {"type": "node", "id": 2651302791, "lat": 45.4925454, "lon": -73.709511}, {"type": "node", "id": 2651302792, "lat": 45.492408, "lon": -73.7092916}, {"type": "node", "id": 2651302793, "lat": 45.4923014, "lon": -73.7094274}, {"type": "node", "id": 2682002814, "lat": 45.4764016, "lon": -73.6218047, "tags": {"addr:housenumber": "5518", "addr:street": "Avenue de Monkland", "amenity": "cafe", "brand": "DavidsTea", "brand:wikidata": "Q3019129", "cuisine": "coffee_shop", "name": "DavidsTea", "opening_hours": "Mo-Sa 09:00-20:00; Su 10:00-19:00", "phone": "+1 514 489 9658", "shop": "tea", "website": "https://www.davidstea.com/", "wheelchair": "yes", "wheelchair:description": "StopGap ramp"}}, {"type": "node", "id": 2687686382, "lat": 45.4822322, "lon": -73.5629557, "tags": {"addr:housenumber": "1940", "addr:street": "Rue Centre", "amenity": "cafe", "internet_access": "wlan", "name": "Le Caf\u00e9 Bloom", "opening_hours": "Mo-Fr 08:00-17:00; Sa-Su 09:00-17:00", "opening_hours:kitchen": "Mo 08:00-15:00; Tu-Fr 08:00-17:30; Sa,Su 09:00-15:00", "website": "http://lecafebloom.com/"}}, {"type": "node", "id": 2687914622, "lat": 45.4919655, "lon": -73.565411, "tags": {"addr:city": "Montr\u00e9al", "addr:housenumber": "1372", "addr:postcode": "H3C 1R7", "addr:province": "QC", "addr:street": "Rue Notre-Dame Ouest", "amenity": "cafe", "level": "2", "name": "Chez L'Editeur Griffintown", "website": "https://www.chezlediteur.com/"}}, {"type": "node", "id": 2709172866, "lat": 45.4585259, "lon": -73.571891, "tags": {"addr:housenumber": "4601", "addr:street": "Rue Verdun", "amenity": "cafe", "automatic_door": "no", "entrance": "yes", "internet_access": "yes", "name": "Caf\u00e9 Chez Charlotte", "opening_hours": "Mo-Fr 07:00-19:00; Sa 09:00-16:00; Su 09:00-16:00", "toilets:wheelchair": "no", "website": "www.cafechezcharlotte.com", "wheelchair": "limited"}}, {"type": "node", "id": 2928609937, "lat": 45.5271371, "lon": -73.5730532, "tags": {"addr:city": "Montr\u00e9al", "addr:housenumber": "1251", "addr:postcode": "H2J 2J9", "addr:province": "Qu\u00e9bec", "addr:street": "Rue Rachel Est", "amenity": "cafe", "brand": "Marius", "cuisine": "mediterranean", "internet_access": "wlan", "name": "Maison des cyclistes", "opening_hours": "Mo-Fr 07:30-17:30, Sa,Su 09:00-17:30", "operator": "Marius", "service:bicycle:diy": "no", "service:bicycle:repair": "no", "service:bicycle:retail": "no", "shop": "bicycle", "takeaway": "yes", "website": "https://www.velo.qc.ca/en/about-us/maison-des-cyclistes/"}}, {"type": "node", "id": 2934341844, "lat": 45.5975518, "lon": -73.5626548, "tags": {"amenity": "cafe", "brand": "Tim Hortons", "brand:wikidata": "Q175106", "cuisine": "coffee_shop", "name": "Tim Hortons", "takeaway": "yes"}}, {"type": "node", "id": 2949765286, "lat": 45.4610945, "lon": -73.8679397, "tags": {"addr:city": "Pierrefonds", "addr:housenumber": "3900", "addr:postcode": "H9H 3C6", "addr:street": "Boulevard Saint-Charles", "amenity": "cafe", "brand": "Starbucks", "brand:wikidata": "Q37158", "cuisine": "coffee_shop", "name": "Starbucks", "official_name": "Starbucks Coffee", "takeaway": "yes"}}, {"type": "node", "id": 3018913197, "lat": 45.4753099, "lon": -73.6228702, "tags": {"addr:city": "Montreal", "addr:housenumber": "5612", "addr:postcode": "H4A 1E3", "addr:street": "Avenue de Monkland", "amenity": "cafe", "name": "Melk"}}, {"type": "node", "id": 3025272707, "lat": 45.4856557, "lon": -73.6277953, "tags": {"addr:city": "Montr\u00e9al", "addr:housenumber": "5095", "addr:postcode": "H3W 1X4", "addr:province": "Qu\u00e9bec", "addr:street": "Chemin Queen Mary", "amenity": "cafe", "brand": "Tim Hortons", "brand:wikidata": "Q175106", "brand:wikipedia": "en:Tim Hortons", "cuisine": "coffee_shop", "name": "Tim Hortons", "phone": "+1-514-737-5671", "smoking": "no", "takeaway": "yes", "website": "https://www.timhortons.com/"}}, {"type": "node", "id": 3049969601, "lat": 45.5233989, "lon": -73.582107, "tags": {"amenity": "cafe", "name": "Choclaterie"}}, {"type": "node", "id": 3080858176, "lat": 45.503736, "lon": -73.5569347, "tags": {"addr:city": "Montreal", "addr:housenumber": "469", "addr:street": "Rue Saint-Fran\u00e7ois-Xavier", "amenity": "cafe", "name": "Luna d'Oro", "phone": "+1 514 288 1999"}}, {"type": "node", "id": 3088325065, "lat": 45.5297384, "lon": -73.6235919, "tags": {"amenity": "cafe", "name": "Caf\u00e9 Vezuvio", "name:en": "Vesuvio", "name:fr": "Vesuvio", "smoking": "no"}}, {"type": "node", "id": 3142727651, "lat": 45.4977937, "lon": -73.5803124, "tags": {"addr:city": "Montr\u00e9al", "addr:housenumber": "1448", "addr:postcode": "H3G 1K4", "addr:street": "Rue Sherbrooke Ouest", "amenity": "cafe", "cuisine": "coffee_shop", "internet_access": "wlan", "name": "Cafe Aunja", "opening_hours": "10:00-22:00", "smoking": "outside", "step_count": "3", "wheelchair": "no"}}, {"type": "node", "id": 3219613959, "lat": 45.5396913, "lon": -73.6306748, "tags": {"addr:housenumber": "72", "addr:street": "Jarry E", "amenity": "cafe", "cuisine": "coffee_shop", "internet_access": "wlan", "name": "Caf\u00e9 OUI MAIS NON", "opening_hours": "Mo-Su 07:00-23:00", "outdoor_seating": "yes"}}, {"type": "node", "id": 3225994558, "lat": 45.5139427, "lon": -73.5600837, "tags": {"amenity": "cafe", "name": "Salon G"}}, {"type": "node", "id": 3261054761, "lat": 45.4972625, "lon": -73.622537}, {"type": "node", "id": 3270402561, "lat": 45.4951278, "lon": -73.5636745, "tags": {"amenity": "cafe", "brand": "Tim Hortons", "brand:wikidata": "Q175106", "brand:wikipedia": "en:Tim Hortons", "cuisine": "coffee_shop", "internet_access": "no", "name": "Tim Hortons", "takeaway": "yes"}}, {"type": "node", "id": 3329010047, "lat": 45.4842335, "lon": -73.6314472, "tags": {"amenity": "cafe", "brand": "Tim Hortons", "brand:wikidata": "Q175106", "brand:wikipedia": "en:Tim Hortons", "cuisine": "coffee_shop", "name": "Tim Hortons", "opening_hours": "24/7", "phone": "+1-514-486-0552", "smoking": "no", "takeaway": "yes", "website": "https://www.timhortons.com/", "wheelchair": "yes"}}, {"type": "node", "id": 3458612021, "lat": 45.6021032, "lon": -73.5748487, "tags": {"addr:city": "Anjou", "addr:housenumber": "7150", "addr:postcode": "H1J 1G5", "addr:street": "Rue Jarry Est", "amenity": "cafe", "brand": "Tim Hortons", "brand:wikidata": "Q175106", "cuisine": "coffee_shop", "name": "Tim Hortons", "takeaway": "yes", "website": "https://timhortons.com/"}}, {"type": "node", "id": 3477870758, "lat": 45.4933321, "lon": -73.5817791}, {"type": "node", "id": 3477870759, "lat": 45.4932821, "lon": -73.5816906}, {"type": "node", "id": 3477870760, "lat": 45.4934242, "lon": -73.5816731}, {"type": "node", "id": 3477870761, "lat": 45.4933742, "lon": -73.5815846}, {"type": "node", "id": 3507040019, "lat": 45.482355, "lon": -73.6305746, "tags": {"addr:city": "Montr\u00e9al", "addr:housenumber": "5395", "addr:postcode": "H3X 1V1", "addr:province": "Qu\u00e9bec", "addr:street": "Chemin Queen Mary", "amenity": "cafe", "brand": "Starbucks", "brand:wikidata": "Q37158", "brand:wikipedia": "en:Starbucks", "cuisine": "coffee_shop", "name": "Starbucks", "official_name": "Starbucks Coffee", "takeaway": "yes", "wheelchair": "yes"}}, {"type": "node", "id": 3573282713, "lat": 45.5629284, "lon": -73.5944638, "tags": {"addr:city": "Montr\u00e9al", "addr:housenumber": "3700", "addr:postcode": "H2A 1X9", "addr:street": "Rue Jean-Talon Est", "amenity": "cafe", "name": "Caf\u00e9 Bar Brewski's", "phone": "+1-514-593-8364"}}, {"type": "node", "id": 3576983209, "lat": 45.5204076, "lon": -73.5793218}, {"type": "node", "id": 3576983211, "lat": 45.5203549, "lon": -73.5792048}, {"type": "node", "id": 3576983995, "lat": 45.5202503, "lon": -73.5792985}, {"type": "node", "id": 3576983996, "lat": 45.5203047, "lon": -73.5794176}, {"type": "node", "id": 3576984710, "lat": 45.5203078, "lon": -73.5792471}, {"type": "node", "id": 3596860665, "lat": 45.5339053, "lon": -73.583551, "tags": {"addr:housenumber": "1389", "addr:postcode": "h2j1h8", "addr:street": "Avenue Laurier Est", "amenity": "cafe", "cuisine": "cafe;sandwich;panini", "email": "info@brulerie.com", "internet_access": "wlan", "name": "Br\u00fblerie St. Denis", "opening_hours": "Mo-Fr 07:00-20:00, Sa,Su 08:00-20:00", "phone": "+1 514 508 9159", "website": "http://www.brulerie.com", "wheelchair": "yes"}}, {"type": "node", "id": 3625796850, "lat": 45.5404501, "lon": -73.6234089, "tags": {"addr:city": "Montr\u00e9al", "addr:housenumber": "373", "addr:province": "QC", "addr:street": "Rue Villeray", "amenity": "cafe", "cuisine": "coffee_shop", "name": "P\u00e2tisserie Villeray Baklava Caf\u00e9", "phone": "+1-514-944-5523"}}, {"type": "node", "id": 3626124906, "lat": 45.5337339, "lon": -73.6099953, "tags": {"addr:city": "Montr\u00e9al", "addr:housenumber": "226", "addr:postcode": "H2S 1L1", "addr:province": "QC", "addr:street": "Rue Saint-Zotique Est", "amenity": "cafe", "name": "Caf\u00e9 Marinelli"}}, {"type": "node", "id": 3627435124, "lat": 45.5365575, "lon": -73.607856, "tags": {"addr:city": "Montr\u00e9al", "addr:housenumber": "507", "addr:province": "QC", "addr:street": "Rue Saint-Zotique Est", "amenity": "cafe", "cuisine": "coffee_shop", "name": "Caf\u00e9 Genova"}}, {"type": "node", "id": 3649851981, "lat": 45.5186597, "lon": -73.5827444, "tags": {"addr:city": "Montr\u00e9al", "addr:housenumber": "4255", "addr:postcode": "H2W 1Z4", "addr:street": "Boulevard Saint-Laurent", "amenity": "cafe", "diet:gluten_free": "yes", "internet_access": "yes", "name": "Boulangerie Baked 2 Go"}}, {"type": "node", "id": 3653599769, "lat": 45.4930687, "lon": -73.5573585, "tags": {"addr:housenumber": "1080", "addr:street": "Rue Wellington", "amenity": "cafe", "brand": "Presotea", "brand:website": "https://presotea.ca/", "cuisine": "bubble_tea", "name": "Presotea"}}, {"type": "node", "id": 3696228764, "lat": 45.4982846, "lon": -73.6275547, "tags": {"addr:city": "Montr\u00e9al", "addr:housenumber": "3700", "addr:postcode": "H3T 1E1", "addr:province": "QC", "addr:street": "Chemin de la C\u00f4te-Sainte-Catherine", "amenity": "cafe", "brand": "Tim Hortons", "brand:wikidata": "Q175106", "brand:wikipedia": "en:Tim Hortons", "cuisine": "coffee_shop", "name": "Tim Hortons", "operator": "Restaurant Brands International Inc.", "outdoor_seating": "no", "takeaway": "yes"}}, {"type": "node", "id": 3812097909, "lat": 45.5085125, "lon": -73.5718836, "tags": {"addr:city": "Montr\u00e9al", "addr:housenumber": "3418B", "addr:postcode": "H2X 2H5", "addr:province": "Quebec", "addr:street": "Avenue du Parc", "amenity": "cafe", "name": "Mintar"}}, {"type": "node", "id": 3812097912, "lat": 45.5085905, "lon": -73.5721116, "tags": {"addr:city": "Montr\u00e9al", "addr:housenumber": "3428", "addr:postcode": "H2X 2H5", "addr:province": "Quebec", "addr:street": "Avenue du Parc", "amenity": "cafe", "brand": "Chatime", "brand:en": "Chatime", "brand:wikidata": "Q16829306", "brand:wikipedia": "en:Chatime", "brand:zh": "\u65e5\u51fa\u8336\u592a", "check_date": "2023-09-22", "cuisine": "bubble_tea", "name": "Chatime", "name:en": "Chatime", "name:zh": "\u65e5\u51fa\u8336\u592a", "takeaway": "yes"}}, {"type": "node", "id": 3931251488, "lat": 45.4972562, "lon": -73.6225238}, {"type": "node", "id": 3931251489, "lat": 45.4972579, "lon": -73.6225409}, {"type": "node", "id": 3931251492, "lat": 45.4972943, "lon": -73.6224929}, {"type": "node", "id": 3931251494, "lat": 45.4972989, "lon": -73.6225092}, {"type": "node", "id": 3931251496, "lat": 45.4973172, "lon": -73.6224943}, {"type": "node", "id": 3931251497, "lat": 45.4973279, "lon": -73.6225176}, {"type": "node", "id": 3931251498, "lat": 45.4973258, "lon": -73.6226916}, {"type": "node", "id": 3931251500, "lat": 45.4973329, "lon": -73.6227051}, {"type": "node", "id": 3931251501, "lat": 45.4973356, "lon": -73.6227104}, {"type": "node", "id": 3931251502, "lat": 45.4973483, "lon": -73.6225003}, {"type": "node", "id": 3931251503, "lat": 45.4973711, "lon": -73.6226677}, {"type": "node", "id": 3931251504, "lat": 45.4973739, "lon": -73.6226757}, {"type": "node", "id": 3931251505, "lat": 45.4973746, "lon": -73.6226645}, {"type": "node", "id": 3931251506, "lat": 45.4973929, "lon": -73.6226349}, {"type": "node", "id": 3931251507, "lat": 45.4973964, "lon": -73.6226435}, {"type": "node", "id": 3931251508, "lat": 45.4974037, "lon": -73.6226256}, {"type": "node", "id": 3931499592, "lat": 45.5003684, "lon": -73.6305037}, {"type": "node", "id": 3931499593, "lat": 45.5004471, "lon": -73.6304306}, {"type": "node", "id": 3931499594, "lat": 45.5004545, "lon": -73.6304462}, {"type": "node", "id": 3931499595, "lat": 45.5004891, "lon": -73.6304165}, {"type": "node", "id": 3931499596, "lat": 45.5004828, "lon": -73.6303986}, {"type": "node", "id": 3931499597, "lat": 45.5005307, "lon": -73.6302195}, {"type": "node", "id": 3931499599, "lat": 45.5005499, "lon": -73.6303368}, {"type": "node", "id": 3931499601, "lat": 45.5005688, "lon": -73.6303808}, {"type": "node", "id": 3931499602, "lat": 45.5005942, "lon": -73.6303591}, {"type": "node", "id": 3944641580, "lat": 45.5240841, "lon": -73.6002605, "tags": {"addr:housenumber": "124", "addr:postcode": "H2T 2L1", "addr:street": "Rue Saint-Viateur Ouest", "alt_name": "Caf\u00e9 Olimpico", "amenity": "cafe", "check_date": "2023-08-02", "internet_access": "wlan", "internet_access:fee": "no", "name": "Caf\u00e9 Olimpico", "opening_hours": "06:00-23:59", "payment:interac": "yes", "payment:mastercard": "yes", "payment:visa": "yes", "phone": "+1 514-495-0746", "smoking": "no", "website": "https://cafeolimpico.com/", "wheelchair": "no"}}, {"type": "node", "id": 3944652584, "lat": 45.5220121, "lon": -73.6013739, "tags": {"addr:housenumber": "540", "addr:street": "Avenue du Parc", "amenity": "cafe", "internet_access": "wlan", "name": "Caf\u00e9 Thomas", "smoking": "no", "website": "http://cafe-thomas.com"}}, {"type": "node", "id": 3992688333, "lat": 45.4966326, "lon": -73.5790198, "tags": {"addr:city": "Montr\u00e9al", "addr:housenumber": "2002", "addr:postcode": "H3G 2J1", "addr:province": "Quebec", "addr:street": "Mackay", "amenity": "cafe", "cuisine": "coffee;sandwich;bagel", "internet_access": "yes", "name": "Hinnawi Bros Bagel & Caf\u00e9", "smoking": "no", "step_count": "10", "website": "http://www.hinnawibrosbagelandcafe.com/", "wheelchair": "no"}}, {"type": "node", "id": 4024888878, "lat": 45.4948498, "lon": -73.580442, "tags": {"access": "customers", "addr:housenumber": "1675", "addr:street": "Boulevard De Maisonneuve Ouest", "amenity": "cafe", "entrance": "staircase", "name": "Magic Idea Tea Lounge", "wheelchair": "no"}}, {"type": "node", "id": 4045201279, "lat": 45.5757171, "lon": -73.5849751}, {"type": "node", "id": 4045201280, "lat": 45.575627, "lon": -73.5846586}, {"type": "node", "id": 4045201282, "lat": 45.5757552, "lon": -73.5847312}, {"type": "node", "id": 4045201286, "lat": 45.5758093, "lon": -73.5849215}, {"type": "node", "id": 4045201695, "lat": 45.5757053, "lon": -73.5846132}, {"type": "node", "id": 4045201698, "lat": 45.5757336, "lon": -73.5847127}, {"type": "node", "id": 4045201699, "lat": 45.5757476, "lon": -73.5847046}, {"type": "node", "id": 4059093098, "lat": 45.4970805, "lon": -73.5771, "tags": {"addr:housenumber": "1429a", "addr:street": "Rue Bishop", "amenity": "cafe", "cuisine": "coffee_shop", "name": "Kafein caf\u00e9-bar", "name:ko": "\ubaac\ud2b8\ub9ac\uc62c\uc219\uc18c", "ramp": "no", "step_count": "9", "website": "http://www.kafein.ca", "wheelchair": "no"}}, {"type": "node", "id": 4059117504, "lat": 45.4973891, "lon": -73.5792923, "tags": {"amenity": "cafe", "name": "Hive Cafe", "website": "https://hivecafe.ca/", "wheelchair": "yes"}}, {"type": "node", "id": 4059129989, "lat": 45.4960474, "lon": -73.5776941, "tags": {"amenity": "cafe", "designation": "Tea house", "name": "Qabane \u00c0 Th\u00e9", "website": "http://qabane.ca/en/home", "wheelchair": "limited"}}, {"type": "node", "id": 4059413911, "lat": 45.4948984, "lon": -73.5782354, "tags": {"amenity": "cafe", "brand": "Tim Hortons", "brand:wikidata": "Q175106", "brand:wikipedia": "en:Tim Hortons", "cuisine": "coffee_shop", "internet_access": "wlan", "internet_access:fee": "yes", "name": "Tim Hortons", "takeaway": "yes", "wheelchair": "yes"}}, {"type": "node", "id": 4062335306, "lat": 45.4967552, "lon": -73.577387, "tags": {"amenity": "cafe", "brand": "Tim Hortons", "brand:wikidata": "Q175106", "brand:wikipedia": "en:Tim Hortons", "cuisine": "coffee_shop", "internet_access": "wlan", "internet_access:fee": "yes", "name": "Tim Hortons", "takeaway": "yes", "wheelchair": "yes"}}, {"type": "node", "id": 4109567649, "lat": 45.5265286, "lon": -73.6499933, "tags": {"amenity": "cafe", "brand": "Tim Hortons", "brand:wikidata": "Q175106", "brand:wikipedia": "en:Tim Hortons", "cuisine": "coffee_shop", "name": "Tim Hortons", "takeaway": "yes"}}, {"type": "node", "id": 4119656990, "lat": 45.5330706, "lon": -73.6106191, "tags": {"addr:housenumber": "156", "addr:street": "Rue Saint-Zotique Est", "amenity": "cafe", "cuisine": "donut", "name": "Trou de Beigne", "opening_hours": "We-Su 09:00-17:00+", "phone": "+1-514-701-3735", "website": "https://www.troudebeigne.com/"}}, {"type": "node", "id": 4159656989, "lat": 45.5185583, "lon": -73.5777795, "tags": {"addr:city": "Montr\u00e9al", "addr:housenumber": "172", "addr:postcode": "H2W 1H3", "addr:street": "Avenue Duluth Est", "amenity": "cafe", "name": "Caf\u00e9 Chat L'Heureux", "opening_hours": "PH,Tu-Su 11:00-20:00"}}, {"type": "node", "id": 4181726229, "lat": 45.51304, "lon": -73.5591654, "tags": {"addr:street": "Rue Saint-Denis", "amenity": "cafe", "name": "Caf\u00e9 de la Pagode"}}, {"type": "node", "id": 4181768310, "lat": 45.5128544, "lon": -73.5587993, "tags": {"addr:street": "Rue Saint-Denis", "amenity": "cafe", "name": "Caf\u00e9 1880 Inc. "}}, {"type": "node", "id": 4189722913, "lat": 45.5017538, "lon": -73.5666218, "tags": {"addr:housenumber": "630", "addr:street": "Boulevard Ren\u00e9-L\u00e9vesque Ouest", "amenity": "cafe", "brand": "Caf\u00e9 D\u00e9p\u00f4t", "brand:wikidata": "Q64924449", "cuisine": "coffee_shop;cake;bagel;bistro", "internet_access": "wlan", "name": "Caf\u00e9 D\u00e9p\u00f4t", "opening_hours": "Mo-Fr 08:00-17:00", "takeaway": "yes"}}, {"type": "node", "id": 4270733750, "lat": 45.5058498, "lon": -73.5552726, "tags": {"addr:housenumber": "480", "addr:street": "Boulevard Saint-Laurent", "amenity": "cafe", "name": "Caf\u00e9 Veritas"}}, {"type": "node", "id": 4271032797, "lat": 45.5215739, "lon": -73.5619467, "tags": {"amenity": "cafe", "internet_access": "yes", "name": "Sfouf", "opening_hours": "Tu-Fr 08:00-18:00; Sa,Su 08:30-17:00; Mo off", "smoking": "no"}}, {"type": "node", "id": 4280248012, "lat": 45.5204549, "lon": -73.597283, "tags": {"addr:city": "Montr\u00e9al", "addr:housenumber": "5175a", "addr:street": "Avenue du Parc", "amenity": "cafe", "diet:vegan": "yes", "internet_access": "yes", "name": "Resonance Caf\u00e9", "website": "http://www.resonancecafe.com/"}}, {"type": "node", "id": 4284763997, "lat": 45.5420127, "lon": -73.5904431, "tags": {"addr:city": "Montr\u00e9al", "addr:housenumber": "1951", "addr:postcode": "H2G 1S9", "addr:province": "QC", "addr:street": "Boulevard Rosemont", "air_conditioning": "yes", "amenity": "cafe", "check_date": "2023-09-27", "cuisine": "coffee_shop", "internet_access": "yes", "internet_access:fee": "customers", "internet_access:password": "mucho1951", "internet_access:ssid": "MUCHOMUCHO_5GHz", "name": "Cafe Mucho Mucho", "opening_hours": "Mo-Fr 08:00-18:00; Sa-Su 09:00-18:00", "outdoor_seating": "yes", "phone": "+1 438-387-3855", "wheelchair": "no"}}, {"type": "node", "id": 4293457609, "lat": 45.5155725, "lon": -73.5759536, "tags": {"addr:housenumber": "3801", "addr:street": "Boulevard Saint-Laurent", "amenity": "cafe", "brand": "Second Cup", "brand:wikidata": "Q862180", "brand:wikipedia": "en:Second Cup", "check_date": "2023-08-06", "cuisine": "coffee_shop", "internet_access": "wlan", "name": "Second Cup", "takeaway": "yes"}}, {"type": "node", "id": 4294896890, "lat": 45.5179234, "lon": -73.5577787, "tags": {"addr:housenumber": "1447", "addr:street": "Rue Amherst", "amenity": "cafe", "internet_access": "wlan", "name": "Pourquoi Pas Expresso Bar"}}, {"type": "node", "id": 4295192889, "lat": 45.5193846, "lon": -73.5773144, "tags": {"addr:housenumber": "251", "addr:postcode": "H2W 1H7", "addr:street": "Avenue Duluth Est", "amenity": "cafe", "cuisine": "mediterranean", "internet_access": "wlan", "name": "Caf\u00e9 Pardes", "phone": "+1-514-591-6201"}}, {"type": "node", "id": 4297304090, "lat": 45.4796734, "lon": -73.5805825, "tags": {"addr:city": "Montr\u00e9al", "addr:housenumber": "3600", "addr:street": "Rue Notre-Dame Ouest", "amenity": "cafe", "brand": "Tim Hortons", "brand:wikidata": "Q175106", "brand:wikipedia": "en:Tim Hortons", "cuisine": "coffee_shop", "internet_access": "wlan", "name": "Tim Hortons", "opening_hours": "24/7", "takeaway": "yes"}}, {"type": "node", "id": 4303089047, "lat": 45.532315, "lon": -73.6522009, "tags": {"amenity": "cafe", "name": "Green Caf\u00e9"}}, {"type": "node", "id": 4303089050, "lat": 45.5335695, "lon": -73.6564868, "tags": {"amenity": "cafe", "brand": "Tim Hortons", "brand:wikidata": "Q175106", "brand:wikipedia": "en:Tim Hortons", "cuisine": "coffee_shop", "name": "Tim Hortons", "takeaway": "yes"}}, {"type": "node", "id": 4303510517, "lat": 45.5289656, "lon": -73.6161397, "tags": {"addr:city": "Montr\u00e9al", "addr:housenumber": "267", "addr:street": "Rue Saint-Zotique Ouest", "amenity": "cafe", "cuisine": "cafe", "name": "Dispatch Coffee", "opening_hours:signed": "no", "phone": "+1-514-437-1327"}}, {"type": "node", "id": 4309916789, "lat": 45.5355141, "lon": -73.6034962, "tags": {"addr:housenumber": "758", "addr:street": "Rue Beaubien Est", "amenity": "cafe", "changing_table": "no", "check_date": "2023-11-27", "contact:instagram": "https://www.instagram.com/cafe.labine/", "cuisine": "coffee_shop", "internet_access": "wlan", "internet_access:fee": "customers", "internet_access:password": "mabellebine", "internet_access:ssid": "Cafelabine", "name": "Caf\u00e9 La Bine", "opening_hours": "Mo-Fr 08:00-19:00; Sa-Su 08:00-18:00", "outdoor_seating": "no", "payment:cash": "yes", "payment:mastercard": "yes", "payment:visa": "yes", "toilets": "yes", "toilets:wheelchair": "no", "wheelchair": "no"}}, {"type": "node", "id": 4309973931, "lat": 45.5311344, "lon": -73.6079051, "tags": {"addr:city": "Montr\u00e9al", "addr:housenumber": "65", "addr:street": "Rue Beaubien Est", "amenity": "cafe", "check_date": "2023-03-04", "name": "Caf\u00e9 Odessa", "opening_hours": "Mo-Su 08:00-17:00", "opening_hours:signed": "no", "payment:interac": "yes", "payment:mastercard": "yes", "payment:visa": "yes"}}, {"type": "node", "id": 4311277291, "lat": 45.5347973, "lon": -73.6041286, "tags": {"addr:housenumber": "500", "addr:street": "Rue Beaubien Est", "amenity": "cafe", "check_date": "2023-03-04", "name": "Pista & Triporteurs", "payment:interac": "yes", "payment:mastercard": "yes", "payment:visa": "yes"}}, {"type": "node", "id": 4325235792, "lat": 45.5015691, "lon": -73.5932755, "tags": {"amenity": "cafe", "cuisine": "coffee_shop;sandwich", "name": "Caf\u00e9 des Amis", "opening_hours": "Mo-Su 09:00-17:00; Dec 24,31 09:00-16:00; Dec 25,Jan 01 off", "phone": "+1 514-843-8240", "website": "https://www.lemontroyal.qc.ca/en/activities-and-services/services-at-smith-house.sn"}}, {"type": "node", "id": 4325258221, "lat": 45.4985062, "lon": -73.5992864, "tags": {"amenity": "cafe", "cuisine": "coffee_shop;sandwich", "name": "Cafe des Amis", "opening_hours": "Su-We 09:00-18:00; Th-Sa 09:00-21:00", "phone": "+1 514-843-8240", "website": "https://www.lemontroyal.qc.ca/en/activities-and-services/services-at-smith-house.sn"}}, {"type": "node", "id": 4325614194, "lat": 45.5328528, "lon": -73.6528105, "tags": {"amenity": "cafe", "brand": "Tim Hortons", "brand:wikidata": "Q175106", "brand:wikipedia": "en:Tim Hortons", "cuisine": "coffee_shop", "name": "Tim Hortons", "takeaway": "yes"}}, {"type": "node", "id": 4343329645, "lat": 45.5288299, "lon": -73.648251, "tags": {"amenity": "cafe", "brand": "Starbucks", "brand:wikidata": "Q37158", "brand:wikipedia": "en:Starbucks", "cuisine": "coffee_shop", "name": "Starbucks", "official_name": "Starbucks Coffee", "takeaway": "yes"}}, {"type": "node", "id": 4345157291, "lat": 45.5167289, "lon": -73.5673466, "tags": {"addr:city": "Montr\u00e9al", "addr:housenumber": "372", "addr:postcode": "H2X 1E6", "addr:province": "Qu\u00e9bec", "addr:street": "Rue Sherbrooke Est", "amenity": "cafe", "description": "This cafe is no longer in business. It is on sale.", "name": "Hinnawi Bros Bage & Cafe"}}, {"type": "node", "id": 4345159689, "lat": 45.5163891, "lon": -73.5664859, "tags": {"addr:city": "Montr\u00e9al", "addr:housenumber": "2080", "addr:postcode": "H2X 3K7", "addr:province": "Qu\u00e9bec", "addr:street": "Rue Saint-Denis", "amenity": "cafe", "name": "Le Gitana"}}, {"type": "node", "id": 4349778993, "lat": 45.5092771, "lon": -73.5707818, "tags": {"addr:housenumber": "250", "addr:postcode": "H2X 1X9", "addr:street": "Rue Sherbrooke Ouest", "amenity": "cafe", "name": "Les Moulins La Fayette", "website": "https://lesmoulinslafayette.com/"}}, {"type": "node", "id": 4353290607, "lat": 45.507294, "lon": -73.6624003, "tags": {"addr:city": "Mont-Royal", "addr:housenumber": "2362", "addr:street": "Chemin Lucerne", "amenity": "cafe", "brand": "Starbucks", "brand:wikidata": "Q37158", "brand:wikipedia": "en:Starbucks", "cuisine": "coffee_shop", "internet_access": "yes", "name": "Starbucks", "official_name": "Starbucks Coffee", "phone": "+1-514-739-1782", "takeaway": "yes"}}, {"type": "node", "id": 4354028193, "lat": 45.5456023, "lon": -73.6535749, "tags": {"amenity": "cafe", "brand": "Tim Hortons", "brand:wikidata": "Q175106", "brand:wikipedia": "en:Tim Hortons", "cuisine": "coffee_shop", "name": "Tim Hortons", "takeaway": "yes"}}, {"type": "node", "id": 4354939902, "lat": 45.5363066, "lon": -73.7001696, "tags": {"amenity": "cafe", "brand": "Tim Hortons", "brand:wikidata": "Q175106", "brand:wikipedia": "en:Tim Hortons", "changing_table": "yes", "cuisine": "coffee_shop", "internet_access": "wlan", "internet_access:fee": "no", "name": "Tim Hortons", "opening_hours": "24/7", "smoking": "no", "takeaway": "yes", "toilets": "yes", "toilets:access": "customers", "toilets:wheelchair": "yes", "wheelchair": "yes"}}, {"type": "node", "id": 4355523595, "lat": 45.4964156, "lon": -73.5728439, "tags": {"amenity": "cafe", "brand": "Starbucks", "brand:wikidata": "Q37158", "brand:wikipedia": "en:Starbucks", "cuisine": "coffee_shop", "name": "Starbucks", "official_name": "Starbucks Coffee", "takeaway": "yes", "website": "https://www.starbucks.com/", "wheelchair": "yes"}}, {"type": "node", "id": 4355541792, "lat": 45.4962661, "lon": -73.572998, "tags": {"amenity": "cafe", "name": "Caf\u00e9 imagination", "wheelchair": "no"}}, {"type": "node", "id": 4356673389, "lat": 45.5428749, "lon": -73.5625678, "tags": {"amenity": "cafe", "name": "Le caf\u00e9shop", "wheelchair": "yes"}}, {"type": "node", "id": 4357497393, "lat": 45.5029552, "lon": -73.5589189, "tags": {"addr:housenumber": "272", "addr:street": "Rue Saint-Jacques", "amenity": "cafe", "name": "Cookie St\u00e9fanie", "opening_hours": "Mo-Fr 08:00-17:00; Sa 12:00-17:00", "phone": "+1-438-380-1560", "website": "https://www.cookiestefanie.com/"}}, {"type": "node", "id": 4357573094, "lat": 45.5032903, "lon": -73.5580477, "tags": {"amenity": "cafe", "name": "Caf\u00e9 Pav\u00e9"}}, {"type": "node", "id": 4357731717, "lat": 45.4865763, "lon": -73.5884463, "tags": {"amenity": "cafe", "brand": "Starbucks", "brand:wikidata": "Q37158", "brand:wikipedia": "fr:Starbucks", "cuisine": "coffee_shop", "name": "Starbucks", "official_name": "Starbucks Coffee", "takeaway": "yes"}}, {"type": "node", "id": 4358905890, "lat": 45.535942, "lon": -73.6139964, "tags": {"addr:housenumber": "260", "addr:postcode": "H2S1A1", "addr:street": "Place du March\u00e9-du-Nord", "amenity": "cafe", "check_date": "2023-03-24", "cuisine": "coffee_shop", "internet_access": "wlan", "name": "Caf\u00e9 Saint-Henri", "opening_hours": "Mo-Fr 07:30-18:00; Sa,Su 08:00-15:00", "payment:mastercard": "yes", "payment:visa": "yes", "website": "https://sainthenri.ca/pages/marche-jean-talon"}}, {"type": "node", "id": 4358984492, "lat": 45.5383449, "lon": -73.6141634, "tags": {"addr:housenumber": "400", "addr:street": "Rue Jean-Talon Est", "amenity": "cafe", "brand": "Presotea", "brand:website": "https://www.presotea.ca/", "cuisine": "bubble_tea", "name": "Presotea", "opening_hours": "Mo-Th,Su 11:00-21:00; Fr-Sa 11:00-22:00", "wheelchair": "no"}}, {"type": "node", "id": 4359699450, "lat": 45.5428431, "lon": -73.6292366, "tags": {"addr:city": "Montreal", "addr:housenumber": "405", "addr:postcode": "H2P 1V2", "addr:province": "QC", "addr:street": "Rue Jarry Est", "amenity": "cafe", "cuisine": "coffee_shop", "internet_access": "wlan", "name": "Caf\u00e9 Larue", "outdoor_seating": "no", "phone": "+1 514 564-6444"}}, {"type": "node", "id": 4363655194, "lat": 45.5139385, "lon": -73.6826413, "tags": {"amenity": "cafe", "name": "Van Houtte"}}, {"type": "node", "id": 4396828390, "lat": 45.5023379, "lon": -73.559377, "tags": {"addr:housenumber": "360", "addr:postcode": "H2Y 2N1", "addr:street": "Rue Saint-Jacques", "amenity": "cafe", "email": "pina@crew.co", "internet_access": "wlan", "name": "Crew Collective & Caf\u00e9", "name:en": "Crew Collective & Caf\u00e9", "opening_hours": "Mo-Fr 08:00-22:00; Sa-Su 10:00-20:00", "website": "http://collective.crew.co"}}, {"type": "node", "id": 4402725300, "lat": 45.4940986, "lon": -73.5590807, "tags": {"addr:city": "Montr\u00e9al", "addr:postcode": "H3C 2G6", "addr:province": "Qu\u00e9bec", "addr:street": "Rue Peel", "amenity": "cafe", "brand": "Tim Hortons", "brand:fr": "Tim Hortons", "brand:wikidata": "Q175106", "brand:wikipedia": "fr:Tim Hortons", "cuisine": "coffee_shop", "indoor_seating": "yes", "internet_access": "yes", "name": "Tim Hortons", "name:fr": "Tim Hortons", "opening_hours": "24/7", "outdoor_seating": "no", "smoking": "no", "takeaway": "yes"}}, {"type": "node", "id": 4402893843, "lat": 45.4999022, "lon": -73.5724073, "tags": {"amenity": "cafe", "brand": "Tim Hortons", "brand:wikidata": "Q175106", "brand:wikipedia": "en:Tim Hortons", "cuisine": "coffee_shop", "name": "Tim Hortons", "takeaway": "yes", "wheelchair": "limited"}}, {"type": "node", "id": 4403390399, "lat": 45.5077727, "lon": -73.6640085, "tags": {"addr:city": "Montr\u00e9al", "addr:housenumber": "10", "addr:province": "QC", "addr:street": "Avenue Sainte-Croix", "amenity": "cafe", "brand": "Tim Hortons", "brand:wikidata": "Q175106", "brand:wikipedia": "en:Tim Hortons", "cuisine": "coffee_shop", "name": "Tim Hortons", "takeaway": "yes"}}, {"type": "node", "id": 4403532434, "lat": 45.4970195, "lon": -73.6242323, "tags": {"addr:city": "Montr\u00e9al", "addr:housenumber": "5484", "addr:postcode": "H3T 1Y5", "addr:province": "Qu\u00e9bec", "addr:street": "Chemin de la C\u00f4te-des-Neiges", "amenity": "cafe", "brand": "Starbucks", "brand:wikidata": "Q37158", "brand:wikipedia": "en:Starbucks", "cuisine": "coffee_shop", "indoor_seating": "yes", "name": "Starbucks", "official_name": "Starbucks Coffee", "outdoor_seating": "yes", "takeaway": "yes"}}, {"type": "node", "id": 4419500484, "lat": 45.5103656, "lon": -73.6221354, "tags": {"amenity": "cafe", "name": "Caf\u00e9 M\u00e9di-Club"}}, {"type": "node", "id": 4421926392, "lat": 45.5586636, "lon": -73.6589916, "tags": {"addr:city": "Montr\u00e9al", "addr:housenumber": "1137", "addr:province": "QC", "addr:street": "Rue Fleury Est", "amenity": "cafe", "name": "Le Petit Flore", "name:fr": "Le Petit Flore"}},