{"version": 0.6, "generator": "Overpass API 0.7.62.1 084b4234", "osm3s": {"timestamp_osm_base": "2024-05-11T10:06:00Z", "copyright": "The data included in this document is from www.openstreetmap.org. The data is made available under ODbL."}, "elements": [{"type": "node", "id": 189770160, "lat": 45.5418598, "lon": -73.6634547, "tags": {"amenity": "restaurant", "name": "GP Restaurant"}}, {"type": "node", "id": 191024110, "lat": 45.5476096, "lon": -73.6723185, "tags": {"amenity": "restaurant", "created_by": "JOSM", "name": "Pizza Roni"}}, {"type": "node", "id": 191024149, "lat": 45.5483897, "lon": -73.67179, "tags": {"amenity": "restaurant", "name": "La Cr\u00e8mi\u00e8re"}}, {"type": "node", "id": 191024164, "lat": 45.5492311, "lon": -73.6719597, "tags": {"amenity": "restaurant", "name": "Le Palais du Chausson et de la Pizza"}}, {"type": "node", "id": 191082576, "lat": 45.5533597, "lon": -73.6694912, "tags": {"amenity": "restaurant", "name": "Restaurant Parasol Chinois"}}, {"type": "node", "id": 237575895, "lat": 45.493071, "lon": -73.5804177, "tags": {"addr:city": "Montr\u00e9al", "addr:housenumber": "1871", "addr:postcode": "H3H 1M1", "addr:province": "QC", "addr:street": "Rue Sainte-Catherine Ouest", "amenity": "restaurant", "capacity": "75", "cuisine": "asian", "name": "Noodles Star", "opening_hours": "Mo-Su 11:00-23:00", "phone": "+1-514-932-2888", "smoking": "no", "wheelchair": "limited"}}, {"type": "node", "id": 237584792, "lat": 45.513161, "lon": -73.5706145, "tags": {"amenity": "restaurant", "check_date": "2023-08-06", "name": "Frite Alors!", "opening_hours": "Su-Th 11:30-23:00, Fr,Sa 11:30-01:00", "wheelchair": "no"}}, {"type": "node", "id": 237584794, "lat": 45.5223731, "lon": -73.5779394, "tags": {"addr:street": "Rue Rivard", "amenity": "restaurant", "check_date": "2023-03-04", "cuisine": "diner;friture", "name": "Frite Alors", "payment:interac": "yes", "payment:mastercard": "yes", "payment:visa": "yes", "wheelchair": "no"}}, {"type": "node", "id": 237585894, "lat": 45.520787, "lon": -73.5984245, "tags": {"addr:city": "Montr\u00e9al", "addr:housenumber": "5235A", "addr:postcode": "H2V 4G9", "addr:street": "Avenue du Parc", "amenity": "restaurant", "capacity": "70", "check_date": "2023-08-10", "name": "Frite Alors!", "payment:mastercard": "yes", "payment:visa": "yes", "website": "http://fritealors.com/avenue-du-parc.html", "wheelchair": "limited"}}, {"type": "node", "id": 245512739, "lat": 45.497185, "lon": -73.5754903, "tags": {"addr:city": "Montr\u00e9al", "addr:housenumber": "1356", "addr:postcode": "H3G 1P6", "addr:province": "Qu\u00e9bec", "addr:street": "Rue Sainte-Catherine Ouest", "amenity": "restaurant", "brand": "3 Brasseurs", "brand:wikidata": "Q3230326", "contact:phone": "+1 514 788 9788", "contact:website": "https://www.les3brasseurs.ca/fr/trouver-un-3-brasseurs/crescent/", "cuisine": "burger;pizza;seafood", "microbrewery": "yes", "name": "3 Brasseurs", "name:en": "3 Brewers", "not:brand:wikidata": "Q3230326", "official_name": "Les 3 Brasseurs", "phone": "+1 514-788-9788", "takeaway": "yes", "website": "https://www.les3brasseurs.ca/fr/trouver-un-3-brasseurs/crescent/", "wheelchair": "yes"}}, {"type": "node", "id": 245512741, "lat": 45.4972187, "lon": -73.5774768, "tags": {"addr:housenumber": "1445", "addr:street": "Rue Bishop", "amenity": "restaurant", "cuisine": "thai", "diet:vegetarian": "no", "name": "Le Garden Room", "opening_hours": "Mo-We 12:00-23:00; Th-Su 12:00-02:00", "phone": "+14386035603", "website": "https://www.legardenroom.com/", "wheelchair": "yes"}}, {"type": "node", "id": 299872785, "lat": 45.5250254, "lon": -73.5862543, "tags": {"addr:city": "Montr\u00e9al", "addr:housenumber": "371", "addr:postcode": "H2J 2L5", "addr:province": "Qu\u00e9bec", "addr:street": "Avenue Villeneuve Est", "amenity": "restaurant", "name": "Monsieur B", "phone": "+1 514 845 6066", "website": "https://www.monsieurb.ca/"}}, {"type": "node", "id": 343490371, "lat": 45.5163277, "lon": -73.5776499, "tags": {"addr:city": "Montr\u00e9al", "addr:housenumber": "3895", "addr:postcode": "H2W 1X9", "addr:province": "QC", "addr:street": "Boulevard Saint-Laurent", "amenity": "restaurant", "email": "info@schwartzsdeli.com", "name": "Schwartz's", "opening_hours": "Su-Th 10:30-00:30; Sa 10:30-02:30; Fr 10:30-01:30", "phone": "+1-514-842-4813", "website": "https://schwartzsdeli.com", "wheelchair": "yes", "wikidata": "Q3475576", "wikipedia": "Schwartz's"}}, {"type": "node", "id": 412642014, "lat": 45.4808874, "lon": -73.5787799, "tags": {"amenity": "restaurant", "name": "Green Spot", "wheelchair": "no"}}, {"type": "node", "id": 424780621, "lat": 45.5084095, "lon": -73.5647937, "tags": {"amenity": "restaurant", "brand": "St-Hubert", "brand:wikidata": "Q3495225", "brand:wikipedia": "fr:St-Hubert (restaurant)", "cuisine": "chicken;barbecue", "name": "St-Hubert", "wheelchair": "yes"}}, {"type": "node", "id": 426003015, "lat": 45.4965793, "lon": -73.5696976, "tags": {"amenity": "restaurant", "brand": "La Cage", "brand:wikidata": "Q3206980", "brand:wikipedia": "fr:La Cage aux Sports", "cuisine": "burger;chicken;sandwich;fish;pasta", "name": "La Cage", "wheelchair": "yes"}}, {"type": "node", "id": 427850302, "lat": 45.5260982, "lon": -73.5348205, "tags": {"amenity": "restaurant", "name": "Dagwoods"}}, {"type": "node", "id": 427850303, "lat": 45.5259646, "lon": -73.5347013, "tags": {"amenity": "restaurant", "name": "Chic'n'chic"}}, {"type": "node", "id": 427850304, "lat": 45.5231424, "lon": -73.5353687, "tags": {"amenity": "restaurant", "brand:wikipedia": "en:Subway (restaurant)", "cuisine": "poutine;regional", "name": "Halte Gourmande", "operator": "La Ronde - Parc Six Flags"}}, {"type": "node", "id": 427850327, "lat": 45.5223075, "lon": -73.5369678, "tags": {"amenity": "restaurant", "name": "Route 67"}}, {"type": "node", "id": 445813466, "lat": 45.4889177, "lon": -73.5847719, "tags": {"addr:city": "Westmount", "addr:housenumber": "4000", "addr:postcode": "H3Z 1P1", "addr:province": "QC", "addr:street": "Rue Sainte-Catherine Ouest", "amenity": "restaurant", "cuisine": "sushi", "name": "Miso"}}, {"type": "node", "id": 445813806, "lat": 45.4888033, "lon": -73.5848834, "tags": {"addr:housenumber": "4006", "addr:postcode": "H3Z 1P2", "addr:street": "Saint Catherine Street West", "amenity": "restaurant", "cuisine": "japanese", "name": "Imadake", "opening_hours": "Su-We 17:00-22:30; Th 17:00-23:30; Fr-Sa 17:00-01:00", "phone": "+1-514-931-8833", "website": "https://imadake.ca/"}}, {"type": "node", "id": 454890862, "lat": 45.4401993, "lon": -73.6217005, "tags": {"amenity": "restaurant", "brand": "Pizza Hut", "brand:wikidata": "Q191615", "brand:wikipedia": "en:Pizza Hut", "cuisine": "pizza", "name": "Pizza Hut"}}, {"type": "node", "id": 454890863, "lat": 45.4402319, "lon": -73.6224568, "tags": {"addr:housenumber": "7573", "addr:postcode": "H8N 1X3", "addr:province": "QC", "addr:street": "Boulevard Newman", "addr:suburb": "LaSalle", "amenity": "restaurant", "internet_access": "wlan", "internet_access:fee": "no", "name": "Chez Cora", "phone": "+1 514 364 5884", "website": "https://www.chezcora.com/"}}, {"type": "node", "id": 456028172, "lat": 45.4648091, "lon": -73.5676783, "tags": {"addr:city": "Montr\u00e9al", "addr:housenumber": "3900", "addr:street": "Rue \u00c9thel", "amenity": "restaurant", "name": "Restaurant Beba", "outdoor_seating": "yes", "reservation": "yes", "toilets": "yes", "wheelchair": "no"}}, {"type": "node", "id": 456028176, "lat": 45.4650439, "lon": -73.5672491, "tags": {"addr:city": "Montr\u00e9al", "addr:housenumber": "275", "addr:street": "Rue Hickson", "amenity": "restaurant", "name": "Le Garage", "source": "local_knowledge", "wheelchair": "no"}}, {"type": "node", "id": 458913003, "lat": 45.5138039, "lon": -73.5720332, "tags": {"amenity": "restaurant", "name": "La Fabrique de Bagel"}}, {"type": "node", "id": 458914421, "lat": 45.5130238, "lon": -73.5709896, "tags": {"amenity": "restaurant", "name": "Shaker Cuisine & Mixologie"}}, {"type": "node", "id": 458918548, "lat": 45.514799, "lon": -73.571876, "tags": {"amenity": "restaurant", "cuisine": "italian", "name": "Primo Amore", "outdoor_seating": "yes", "wheelchair": "limited"}}, {"type": "node", "id": 458919689, "lat": 45.51551, "lon": -73.571037, "tags": {"addr:housenumber": "170", "addr:postcode": "H2X 1B7", "addr:province": "QC", "addr:street": "Rue Prince Arthur Est", "addr:suburb": "Le Plateau-Mont-Royal", "amenity": "restaurant", "cuisine": "french", "internet_access": "wlan", "name": "Les Deux Gamins", "outdoor_seating": "yes", "phone": "+1-514-288-3389", "website": "www.lesdeuxgaminsmontreal.com", "wheelchair": "yes"}}, {"type": "node", "id": 458919691, "lat": 45.515707, "lon": -73.570823, "tags": {"amenity": "restaurant", "cuisine": "greek", "name": "Casa Grecque", "outdoor_seating": "yes", "wheelchair": "limited"}}, {"type": "node", "id": 458919702, "lat": 45.5154594, "lon": -73.571068, "tags": {"amenity": "restaurant", "cuisine": "french", "name": "Le Square"}}, {"type": "node", "id": 459031138, "lat": 45.5143506, "lon": -73.5723846, "tags": {"addr:city": "Montr\u00e9al", "addr:housenumber": "17", "addr:street": "Rue Prince-Arthur Est", "amenity": "restaurant", "cuisine": "barbecue", "name": "Diablos"}}, {"type": "node", "id": 461841616, "lat": 45.5149408, "lon": -73.5628055, "tags": {"amenity": "restaurant", "check_date": "2023-03-13", "designation": "dessert", "name": "Juliette et Chocolat", "payment:credit_cards": "yes"}}, {"type": "node", "id": 462248747, "lat": 45.5016003, "lon": -73.5590701, "tags": {"amenity": "restaurant", "cuisine": "asian", "name": "Szechuan"}}, {"type": "node", "id": 462248796, "lat": 45.5018084, "lon": -73.5598159, "tags": {"amenity": "restaurant", "name": "Clafouti"}}, {"type": "node", "id": 462248800, "lat": 45.5016409, "lon": -73.5599448, "tags": {"amenity": "restaurant", "name": "Bio Train"}}, {"type": "node", "id": 462248802, "lat": 45.5016892, "lon": -73.5599202, "tags": {"amenity": "restaurant", "name": "Les gourmets press\u00e9s"}}, {"type": "node", "id": 462248835, "lat": 45.5007852, "lon": -73.5595086, "tags": {"amenity": "restaurant", "name": "49th Parallel"}}, {"type": "node", "id": 463993070, "lat": 45.5172868, "lon": -73.557458, "tags": {"amenity": "restaurant", "name": "Chez Cora", "opening_hours": "PH,Mo-Su 07:00-15:00", "wheelchair": "yes"}}, {"type": "node", "id": 463993484, "lat": 45.5174175, "lon": -73.5573439, "tags": {"amenity": "restaurant", "brand": "St-Hubert", "brand:wikidata": "Q3495225", "cuisine": "chicken;barbecue", "name": "St-Hubert", "opening_hours": "Su-We 11:00-22:00; Th-Sa 11:00-23:00", "wheelchair": "yes"}}, {"type": "node", "id": 463995487, "lat": 45.5176266, "lon": -73.5571281, "tags": {"amenity": "restaurant", "cuisine": "italian", "name": "Piazzetta", "wheelchair": "yes"}}, {"type": "node", "id": 468969715, "lat": 45.5057517, "lon": -73.5537819, "tags": {"amenity": "restaurant", "name": "Chez Suzzette Crepes"}}, {"type": "node", "id": 468970291, "lat": 45.5079593, "lon": -73.5539449, "tags": {"amenity": "restaurant", "name": "Restaurant des Gouverneurs"}}, {"type": "node", "id": 468970300, "lat": 45.5075273, "lon": -73.5527994, "tags": {"amenity": "restaurant", "name": "Le Verre de l'Ange"}}, {"type": "node", "id": 471063426, "lat": 45.5142731, "lon": -73.5730536, "tags": {"addr:city": "Montr\u00e9al", "addr:housenumber": "3633", "addr:postcode": "H2X 2V5", "addr:province": "QC", "addr:street": "Boulevard Saint-Laurent", "amenity": "restaurant", "name": "31\u00b0 Latitude"}}, {"type": "node", "id": 471064654, "lat": 45.5146351, "lon": -73.5738661, "tags": {"amenity": "restaurant", "cuisine": "indian", "name": "Mumbai Masala"}}, {"type": "node", "id": 471065148, "lat": 45.5142541, "lon": -73.5759491, "tags": {"amenity": "restaurant", "name": "Mamma's", "note": "Closed", "wheelchair": "limited"}}, {"type": "node", "id": 477053610, "lat": 45.4766883, "lon": -73.6221037, "tags": {"addr:city": "Montr\u00e9al", "addr:housenumber": "5515", "addr:street": "Avenue de Monkland", "amenity": "restaurant", "cuisine": "japanese", "name": "Mikado", "source": "survey"}}, {"type": "node", "id": 484690279, "lat": 45.5496021, "lon": -73.6008604, "tags": {"amenity": "restaurant", "name": "Roberto"}}, {"type": "node", "id": 497841827, "lat": 45.5263316, "lon": -73.5810164, "tags": {"addr:housenumber": "837", "addr:postcode": "H2J 1W9", "addr:province": "QC", "addr:street": "Avenue du Mont-Royal Est", "addr:suburb": "Le Plateau-Mont-Royal", "amenity": "restaurant", "check_date": "2022-12-30", "internet_access": "wlan", "internet_access:fee": "no", "website": "https://www.chocolatsfavoris.com/"}}, {"type": "node", "id": 514593512, "lat": 45.5292629, "lon": -73.5782694, "tags": {"addr:housenumber": "1241", "addr:postcode": "H2J 1Y2", "addr:province": "QC", "addr:street": "Avenue du Mont-Royal Est", "addr:suburb": "Le Plateau-Mont-Royal", "amenity": "restaurant", "check_date": "2023-09-06", "cuisine": "indian", "name": "India Rosa", "opening_hours": "Mo-Su 11:00-24:00", "outdoor_seating": "yes", "payment:mastercard": "yes", "payment:visa": "yes", "phone": "+1 514 543 1880", "website": "https://indiarosa.com/", "wheelchair": "limited"}}, {"type": "node", "id": 598277445, "lat": 45.5723893, "lon": -73.549107}, {"type": "node", "id": 598277447, "lat": 45.5722423, "lon": -73.5486602}, {"type": "node", "id": 598411895, "lat": 45.5085428, "lon": -73.5474842}, {"type": "node", "id": 598411896, "lat": 45.5085913, "lon": -73.5473012}, {"type": "node", "id": 598411897, "lat": 45.5085835, "lon": -73.5476873}, {"type": "node", "id": 598411898, "lat": 45.50844, "lon": -73.5472949}, {"type": "node", "id": 598411899, "lat": 45.5084682, "lon": -73.5475599}, {"type": "node", "id": 598411900, "lat": 45.5085387, "lon": -73.5476854}, {"type": "node", "id": 652871220, "lat": 45.4975883, "lon": -73.6538398, "tags": {"addr:city": "Montr\u00e9al", "addr:housenumber": "5195", "addr:street": "Rue Par\u00e9", "amenity": "restaurant", "cuisine": "indian", "diet:vegetarian": "yes", "name": "Pushap"}}, {"type": "node", "id": 652888137, "lat": 45.4947273, "lon": -73.6519632, "tags": {"amenity": "restaurant", "name": "Dunn's"}}, {"type": "node", "id": 652888467, "lat": 45.4946137, "lon": -73.6518858, "tags": {"addr:city": "Montreal", "addr:housenumber": "7373", "addr:postcode": "H4P 2G8", "addr:street": "Boulevard D\u00e9carie", "amenity": "restaurant", "cuisine": "asian", "name": "Kanda", "phone": "+1 514 735-7888", "website": "http://www.sushikanda.com/"}}, {"type": "node", "id": 670911395, "lat": 45.535747, "lon": -73.6035501, "tags": {"amenity": "restaurant", "name": "Mr. Chich taouk"}}, {"type": "node", "id": 670935540, "lat": 45.5186101, "lon": -73.6168033, "tags": {"addr:city": "Montr\u00e9al", "addr:housenumber": "1541", "addr:postcode": "H2V 1L4", "addr:province": "Qu\u00e9bec", "addr:street": "Avenue Van Horne", "amenity": "restaurant", "cuisine": "mediterranean", "diet:halal": "yes", "name": "Restaurant Le M\u00e9choui", "phone": "+1-514-273-7676", "smoking": "no"}}, {"type": "node", "id": 747089693, "lat": 45.5148758, "lon": -73.5654105, "tags": {"amenity": "restaurant", "name": "TiBoeuf"}}, {"type": "node", "id": 747091378, "lat": 45.50861, "lon": -73.562152, "tags": {"amenity": "restaurant", "cuisine": "chinese", "delivery": "no", "name": "Restaurant Niu Kee", "takeaway": "yes"}}, {"type": "node", "id": 764524120, "lat": 45.5574884, "lon": -73.5892432, "tags": {"amenity": "restaurant", "cuisine": "chicken", "name": "Au Coq"}}, {"type": "node", "id": 775041493, "lat": 45.5565189, "lon": -73.5948216, "tags": {"amenity": "restaurant", "cuisine": "vietnamese", "name": "Phnong Thao", "note": "Apportez votre vin"}}, {"type": "node", "id": 797783870, "lat": 45.4546764, "lon": -73.5640431}, {"type": "node", "id": 797783871, "lat": 45.4549422, "lon": -73.5638407}, {"type": "node", "id": 797783872, "lat": 45.4548761, "lon": -73.5636798}, {"type": "node", "id": 797783873, "lat": 45.4545981, "lon": -73.5638542}, {"type": "node", "id": 805170916, "lat": 45.5409745, "lon": -73.608137, "tags": {"addr:housenumber": "1100", "addr:street": "Rue B\u00e9langer", "air_conditioning": "yes", "amenity": "restaurant", "bar": "yes", "changing_table": "yes", "changing_table:location": "dedicated_room", "check_date": "2023-11-11", "cuisine": "it;italian", "delivery": "no", "diet:halal": "no", "diet:kosher": "no", "diet:vegetarian": "yes", "indoor_seating": "yes", "name": "Stella Pizzeria", "opening_hours": "Mo off; Tu-We,Sa 17:00-22:00; Th-Fr 11:30-14:30,17:00-22:00; Su 17:00-21:00", "outdoor_seating": "yes", "payment:cash": "yes", "payment:mastercard": "yes", "payment:visa": "yes", "phone": "+1 5145437743", "reservation": "yes", "smoking": "no", "takeaway": "yes", "toilets": "yes", "toilets:wheelchair": "yes", "website": "https://stellapizzeria.ca/", "wheelchair": "yes"}}, {"type": "node", "id": 810790772, "lat": 45.5249441, "lon": -73.5854423, "tags": {"addr:housenumber": "4690", "addr:street": "Rue Saint-Denis", "amenity": "restaurant", "level": "0", "name": "Ouzeri"}}, {"type": "node", "id": 821375156, "lat": 45.5210335, "lon": -73.6106649, "tags": {"addr:country": "CA", "addr:housenumber": "1231", "addr:postcode": "H2V 1P2", "addr:province": "QC", "addr:street": "Avenue Lajoie", "amenity": "restaurant", "contact:phone": "+1-438-381-3289", "contact:website": "http://galanga.ca/", "cuisine": "thai", "ele": "47.0", "name": "Galanga Bistro Tha\u00ef", "name:fr": "Galanga Bistro Tha\u00ef", "opening_hours": "Mo-Fr 11:30-14:30,17:00-22:00; Sa-Su 17:00-22:00", "wheelchair": "no"}}, {"type": "node", "id": 828140644, "lat": 45.5415595, "lon": -73.6077166, "tags": {"amenity": "restaurant", "name": "Ricci resto"}}, {"type": "node", "id": 828140667, "lat": 45.5416527, "lon": -73.6079947, "tags": {"addr:street": "Rue B\u00e9langer", "amenity": "restaurant"}}, {"type": "node", "id": 828140670, "lat": 45.5414664, "lon": -73.608169, "tags": {"amenity": "restaurant", "indoor_seating": "yes", "name": "La Chalupa", "opening_hours": "Th,Fr 17:00-21:00; Sa 10:00-21:00; Su 10:00-19:00; Mo-We off", "outdoor_seating": "no", "wheelchair": "no"}}, {"type": "node", "id": 828177107, "lat": 45.542466, "lon": -73.6072384, "tags": {"addr:city": "Montr\u00e9al", "addr:housenumber": "1251", "addr:postcode": "H2S 1J1", "addr:province": "QC", "addr:street": "Rue B\u00e9langer", "amenity": "restaurant", "cuisine": "sushi", "delivery": "yes", "indoor_seating": "yes", "level": "1", "name": "Futago Sushi", "note": "building:level=3", "opening_hours": "Mo-Sa 11:00-21:00, Su 16:00-21:00", "outdoor_seating": "no", "smoking": "no", "takeaway": "yes", "website": "https://www.restomontreal.ca/en/2701/Sushi-Futago"}}, {"type": "node", "id": 828177116, "lat": 45.5425615, "lon": -73.6071085, "tags": {"amenity": "restaurant", "name": "Pizzeria Casa Nova"}}, {"type": "node", "id": 844440594, "lat": 45.5184058, "lon": -73.5845376, "tags": {"addr:city": "Montr\u00e9al", "addr:housenumber": "4348", "addr:postcode": "H2W 1X3", "addr:province": "QC", "addr:street": "Rue Clark", "amenity": "restaurant", "cuisine": "coffee_shop", "name": "L'\u00c9tag\u00e8re Gourmande", "opening_hours": "Mo-Fr 08:00-19:00; Sa-Su 10:00-19:00", "phone": "+1-514-962-8134", "website": "http://etageregourmande.com/"}}, {"type": "node", "id": 864716908, "lat": 45.5074537, "lon": -73.5524515, "tags": {"amenity": "restaurant", "cuisine": "french", "name": "Chez Queux"}}, {"type": "node", "id": 864716920, "lat": 45.5065862, "lon": -73.5531502, "tags": {"addr:housenumber": "85", "addr:street": "Rue Saint-Paul Est", "amenity": "restaurant", "cuisine": "italian", "name": "Papillon"}}, {"type": "node", "id": 864716930, "lat": 45.5063931, "lon": -73.5528757, "tags": {"addr:city": "Montr\u00e9al", "addr:housenumber": "89", "addr:postcode": "H2Y 1J1", "addr:province": "Quebec", "addr:street": "Rue de la Commune Est", "amenity": "restaurant", "capacity": "100", "cuisine": "bistro", "delivery": "yes", "name": "Taverne Gaspar", "smoking": "no", "takeaway": "yes"}}, {"type": "node", "id": 864716952, "lat": 45.5059241, "lon": -73.5530861, "tags": {"addr:housenumber": "29", "addr:street": "Rue de la Commune Est", "amenity": "restaurant", "name": "Viva"}}, {"type": "node", "id": 864716960, "lat": 45.5060226, "lon": -73.5530471, "tags": {"amenity": "restaurant", "cuisine": "italian", "name": "Pizza Gourment Du Vieux Port"}}, {"type": "node", "id": 867695497, "lat": 45.5449872, "lon": -73.5611181, "tags": {"addr:housenumber": "3165", "addr:street": "Rue Rachel Est", "amenity": "restaurant", "check_date": "2023-07-16", "name": "Labarake", "source": "local_knowledge"}}, {"type": "node", "id": 869340205, "lat": 45.5390362, "lon": -73.5611471, "tags": {"addr:city": "Montr\u00e9al", "addr:housenumber": "2800", "addr:postcode": "H2H 1S8", "addr:province": "QC", "addr:street": "Rue Rachel Est", "amenity": "restaurant", "brand": "Pizza Hut", "brand:wikidata": "Q191615", "brand:wikipedia": "en:Pizza Hut", "cuisine": "pizza", "name": "Pizza Hut", "opening_hours": "Mo-Th 11:00-22:00; Fr 11:00-20:00; Sa 12:00-22:00; Su 11:00-21:00", "phone": "+1-514-521-4551", "website": "https://www.pizzahut.ca/huts/ca-1/R29605/"}}, {"type": "node", "id": 870247054, "lat": 45.5218502, "lon": -73.5779776, "tags": {"amenity": "restaurant", "name": "Le Hachoir"}}, {"type": "node", "id": 870940088, "lat": 45.5039971, "lon": -73.5681385, "tags": {"amenity": "restaurant", "cuisine": "pizza", "name": "Il Foccolaio", "oven": "wood_fired"}}, {"type": "node", "id": 870960619, "lat": 45.504893, "lon": -73.570992, "tags": {"amenity": "restaurant", "created_by": "iLOE 1.8", "name": "Salade Bol", "wheelchair": "yes"}}, {"type": "node", "id": 874174378, "lat": 45.518206, "lon": -73.5698348, "tags": {"addr:city": "Montr\u00e9al", "addr:housenumber": "3635", "addr:postcode": "H2X 3L6", "addr:province": "QC", "addr:street": "Rue Saint-Denis", "addr:suburb": "Le Plateau-Mont-Royal", "amenity": "restaurant", "cuisine": "french", "internet_access": "wlan", "name": "Caf\u00e9 Cherrier", "old_name": "Caf\u00e9 des Artistes", "outdoor_seating": "yes", "phone": "+1 514 843 4308", "website": "http://www.cafecherrier.ca"}}, {"type": "node", "id": 892659873, "lat": 45.5649758, "lon": -73.5925279, "tags": {"amenity": "restaurant", "check_date:opening_hours": "2022-08-04", "cuisine": "pizza", "name": "Caf\u00e9 5 juillet", "opening_hours:signed": "no"}}, {"type": "node", "id": 894450946, "lat": 45.518163, "lon": -73.5697323, "tags": {"addr:housenumber": "3625", "addr:street": "Rue Saint-Denis", "amenity": "restaurant", "description": "R\u00f4tisserie", "name": "Pied Poule"}}, {"type": "node", "id": 913885810, "lat": 45.4847791, "lon": -73.5799051, "tags": {"addr:housenumber": "755", "addr:street": "Avenue Atwater", "amenity": "restaurant", "cuisine": "caribbean", "name": "Cabane Kreyol"}}, {"type": "node", "id": 926984561, "lat": 45.5070385, "lon": -73.5760144, "tags": {"addr:housenumber": "625", "addr:street": "Rue Milton", "amenity": "restaurant", "cuisine": "pizza", "name": "McGill Pizza", "wheelchair": "limited"}}, {"type": "node", "id": 931785624, "lat": 45.5171814, "lon": -73.5679304, "tags": {"amenity": "restaurant", "cuisine": "tibetan", "name": "Shambala"}}, {"type": "node", "id": 931785627, "lat": 45.5171556, "lon": -73.5678637, "tags": {"amenity": "restaurant", "cuisine": "african", "name": "Abiata"}}, {"type": "node", "id": 931785629, "lat": 45.5172112, "lon": -73.5678994, "tags": {"amenity": "restaurant", "cuisine": "korean", "name": "5000ans"}}, {"type": "node", "id": 931787535, "lat": 45.5190729, "lon": -73.5723344, "tags": {"amenity": "restaurant", "cuisine": "sushi", "name": "Higuma"}}, {"type": "node", "id": 931791953, "lat": 45.5177311, "lon": -73.5687366, "tags": {"amenity": "restaurant", "name": "Restaurant de l\u2019ITHQ", "wheelchair": "yes"}}, {"type": "node", "id": 936010440, "lat": 45.5072463, "lon": -73.5758087, "tags": {"addr:housenumber": "545", "addr:street": "Rue Milton", "amenity": "restaurant", "diet:vegan": "only", "name": "Lola Rosa", "opening_hours": "Mo-Su 11:30-21:30", "phone": "+1-514-287-9337", "website": "http://lola-rosa.ca/", "wheelchair": "yes"}}, {"type": "node", "id": 936118432, "lat": 45.5066792, "lon": -73.5530729, "tags": {"amenity": "restaurant", "brand": "3 Brasseurs", "brand:wikidata": "Q3230326", "cuisine": "burger;pizza;seafood", "microbrewery": "yes", "name": "3 Brewers", "name:fr": "3 Brasseurs", "official_name": "Les 3 Brasseurs"}}, {"type": "node", "id": 936118433, "lat": 45.5020131, "lon": -73.570739, "tags": {"addr:housenumber": "732", "addr:street": "Sainte-Catherine O", "amenity": "restaurant", "brand": "3 Brasseurs", "brand:wikidata": "Q3230326", "cuisine": "burger;pizza;seafood", "microbrewery": "yes", "name": "3 Brewers", "name:fr": "3 Brasseurs", "official_name": "Les 3 Brasseurs", "opening_hours": "Su-Th 11:30-23:00; Fr,Sa 11:30-24:00", "wheelchair": "limited"}}, {"type": "node", "id": 936979479, "lat": 45.5026391, "lon": -73.5552166, "tags": {"addr:city": "Montr\u00e9al", "addr:housenumber": "200", "addr:postcode": "H2Y 1Z9", "addr:province": "Qu\u00e9bec", "addr:street": "Rue Saint-Paul Ouest", "amenity": "restaurant", "cuisine": "polish", "name": "Stash Caf\u00e9", "opening_hours:covid19": "off", "phone": "+1 514 845-6611", "website": "https://restaurantstashcafe.ca/"}}, {"type": "node", "id": 936979485, "lat": 45.5025357, "lon": -73.5550301, "tags": {"amenity": "restaurant", "cuisine": "portuguese", "name": "Porto Mar", "website": "http://www.quaiouest.com"}}, {"type": "node", "id": 937557932, "lat": 45.5042188, "lon": -73.5543871, "tags": {"addr:city": "Montr\u00e9al", "addr:housenumber": "100", "addr:postcode": "H2Y 1Z5", "addr:province": "Quebec", "addr:street": "Rue Saint-Paul Ouest", "amenity": "restaurant", "capacity": "120", "cuisine": "french", "name": "Verses Restaurant", "phone": "+1-514-788-4000", "smoking": "no", "takeaway": "yes", "website": "http://www.versesrestaurant.com"}}, {"type": "node", "id": 964119609, "lat": 45.4938203, "lon": -73.5794979, "tags": {"amenity": "restaurant", "name": "Sushi Ste-Catherine", "wheelchair": "no"}}, {"type": "node", "id": 966730906, "lat": 45.506355, "lon": -73.554015, "tags": {"amenity": "restaurant", "name": "L'auberge Saint Gabriel"}}, {"type": "node", "id": 988792389, "lat": 45.5025925, "lon": -73.5611585, "tags": {"addr:housenumber": "405", "addr:postcode": "H2Z 2A3", "addr:street": "Rue Saint-Antoine Ouest", "amenity": "restaurant", "indoor_seating": "yes", "name": "Steak Frites", "opening_hours": "Su,Mo 16:30-21:00; Tu-Fr 11:30-21:00; Sa 16:30-22:00", "outdoor_seating": "no", "wheelchair": "yes"}}, {"type": "node", "id": 998497005, "lat": 45.4496049, "lon": -73.6101566}, {"type": "node", "id": 998497011, "lat": 45.4496512, "lon": -73.61033, "tags": {"entrance": "yes"}}, {"type": "node", "id": 998497018, "lat": 45.449718, "lon": -73.6104305}, {"type": "node", "id": 998497023, "lat": 45.4499043, "lon": -73.6102665}, {"type": "node", "id": 998497028, "lat": 45.4497656, "lon": -73.6100187}, {"type": "node", "id": 1013478502, "lat": 45.5406532, "lon": -73.5546055, "tags": {"amenity": "restaurant", "name": "R\u00f4tisserie Au Coq"}}, {"type": "node", "id": 1013478509, "lat": 45.542025, "lon": -73.5575974, "tags": {"amenity": "restaurant", "indoor_seating": "yes", "name": "Miami", "opening_hours": "24/7", "outdoor_seating": "yes", "wheelchair": "yes"}}, {"type": "node", "id": 1016199233, "lat": 45.5088269, "lon": -73.5514282}, {"type": "node", "id": 1016199622, "lat": 45.5088836, "lon": -73.5516719}, {"type": "node", "id": 1016199628, "lat": 45.5079483, "lon": -73.5526579, "tags": {"addr:city": "Montr\u00e9al", "addr:country": "CA", "addr:housenumber": "407", "addr:postcode": "H2Y 3B1", "addr:province": "Qu\u00e9bec", "addr:street": "Place Jacques-Cartier", "amenity": "restaurant", "cuisine": "pizza;burger;sandwich", "diet:gluten_free": "yes", "diet:vegetarian": "yes", "email": "info@jardinnelson.com", "name": "Jardin Nelson", "opening_hours": "We,Th,Su 11:30-21:30; Fr 11:30-22:30; Sa 11:30-22:00", "payment:cash": "yes", "payment:debit_cards": "yes", "payment:mastercard": "yes", "payment:visa": "yes", "phone": "+1 514 861-5731", "website": "https://jardinnelson.com/"}}, {"type": "node", "id": 1036377064, "lat": 45.5559083, "lon": -73.5572162}, {"type": "node", "id": 1036377065, "lat": 45.5558813, "lon": -73.5574149}, {"type": "node", "id": 1036377067, "lat": 45.5561891, "lon": -73.5570402}, {"type": "node", "id": 1036377068, "lat": 45.5561668, "lon": -73.5572359}, {"type": "node", "id": 1036377071, "lat": 45.5561733, "lon": -73.5572572}, {"type": "node", "id": 1036377072, "lat": 45.5562425, "lon": -73.5572139}, {"type": "node", "id": 1037981682, "lat": 45.549465, "lon": -73.5420348, "tags": {"addr:city": "Montr\u00e9al", "addr:housenumber": "4005", "addr:postcode": "H1W 1T1", "addr:province": "QC", "addr:street": "Rue Ontario Est", "addr:suburb": "Mercier-Hochelaga-Maisonneuve", "amenity": "restaurant", "indoor_seating": "yes", "internet_access": "wlan", "name": "\u00c9tat Major", "outdoor_seating": "no", "phone": "+1-514-905-8288", "website": "https://www.restomontreal.ca/fr/7121/EtatMajor"}}, {"type": "node", "id": 1037981685, "lat": 45.5493195, "lon": -73.5416834, "tags": {"addr:city": "Montr\u00e9al", "addr:housenumber": "3982", "addr:province": "QC", "addr:street": "Rue Ontario Est", "amenity": "restaurant", "check_date:opening_hours": "2023-07-15", "cuisine": "deli", "diet:vegan": "no", "diet:vegetarian": "yes", "internet_access": "no", "name": "Gerry's Delicatessen", "opening_hours:signed": "no", "payment:debit_cards": "yes", "payment:mastercard": "yes", "payment:visa": "yes", "wheelchair": "yes"}}, {"type": "node", "id": 1037988139, "lat": 45.5495294, "lon": -73.5583377, "tags": {"addr:housenumber": "3537", "addr:street": "Rue Rachel Est", "amenity": "restaurant", "check_date": "2023-07-15", "cuisine": "asian", "delivery": "no", "diet:vegetarian": "yes", "indoor_seating": "yes", "name": "Jardin des D\u00e9lices", "outdoor_seating": "yes", "phone": "+1-514-903-6203", "takeaway": "yes", "wheelchair": "yes"}}, {"type": "node", "id": 1039367353, "lat": 45.5236819, "lon": -73.5766234, "tags": {"amenity": "restaurant", "name": "L'anecdote", "opening_hours": "Sa 09:00-22:00; Su 09:00-21:00; Tu-Fr 11:00-22:00; Mo 11:00-21:00"}}, {"type": "node", "id": 1050577747, "lat": 45.5558728, "lon": -73.557313, "tags": {"amenity": "loading_dock"}}, {"type": "node", "id": 1055541330, "lat": 45.5429306, "lon": -73.5626721, "tags": {"addr:housenumber": "4100", "addr:postcode": "H1Y 1N6", "addr:province": "QC", "addr:street": "Rue Andr\u00e9-Laurendeau", "addr:suburb": "Rosemont-Petite-Patrie", "amenity": "restaurant", "internet_access": "wlan", "internet_access:fee": "no", "internet_access:operator": "\u00cele Sans Fil", "name": "Bistro Part Ici", "opening_hours": "Tu-Fr 07:00-02:00; Sa-Su 21:00-02:00", "phone": "+1 514 526 7278", "website": "www.bistropartici.ca"}}, {"type": "node", "id": 1056623204, "lat": 45.5414652, "lon": -73.5606578, "tags": {"addr:housenumber": "2967", "addr:street": "Rue Sherbrooke Est", "amenity": "restaurant", "cuisine": "sushi", "name": "Nori Sushi", "opening_hours": "We-Su 16:00-21:00", "phone": "+1 514 527-0000", "website": "https://www.norisushi.ca"}}, {"type": "node", "id": 1057471230, "lat": 45.507302, "lon": -73.565653, "tags": {"addr:housenumber": "190", "addr:street": "Rue Sainte-Catherine Ouest", "amenity": "restaurant", "name": "Eggspectation", "opening_hours": "Mo-Su 07:00-16:00; Th-Sa 07:00-20:00", "phone": "+1 514 288-6448", "website": "https://www.eggspectation.ca/complexe-desjardins/", "wheelchair": "yes"}}, {"type": "node", "id": 1057471381, "lat": 45.507375, "lon": -73.565492, "tags": {"amenity": "restaurant", "name": "Baton Rouge", "wheelchair": "yes"}}, {"type": "node", "id": 1087601449, "lat": 45.5425273, "lon": -73.5502255, "tags": {"amenity": "restaurant", "cuisine": "mexican", "diet:vegan": "yes", "diet:vegetarian": "yes", "indoor_seating": "yes", "name": "Caf\u00e9 Tex-Mex", "opening_hours": "Mo-Su 17:00-21:00", "outdoor_seating": "no"}}, {"type": "node", "id": 1192154206, "lat": 45.494302, "lon": -73.578929, "tags": {"addr:city": "Montr\u00e9al", "addr:housenumber": "1657", "addr:postcode": "H3H 2H8", "addr:province": "QC", "addr:street": "Rue Sainte-Catherine Ouest", "amenity": "restaurant", "capacity": "150", "check_date": "2023-09-09", "cuisine": "mexican", "entrance": "yes", "name": "Les Trois amigos", "name:en": "3 Amigos", "phone": "+1-514-939-3329", "smoking": "no", "website": "http://www.3amigosrestaurant.com", "wheelchair": "limited"}}, {"type": "node", "id": 1192154309, "lat": 45.4961727, "lon": -73.576448, "tags": {"amenity": "restaurant", "brand": "Scores", "brand:wikidata": "Q3476059", "cuisine": "chicken;barbecue", "name": "Scores"}}, {"type": "node", "id": 1199379344, "lat": 45.4944492, "lon": -73.5760833, "tags": {"amenity": "restaurant", "automatic_door": "no", "cuisine": "chicken", "name": "Bar B Barn", "wheelchair": "no"}}, {"type": "node", "id": 1201288275, "lat": 45.4975169, "lon": -73.5767685, "tags": {"addr:housenumber": "1434", "addr:street": "Crescent Street", "amenity": "restaurant", "automatic_door": "no", "cuisine": "italian", "name": "Wienstein & Gavino's", "website": "https://www.wgmtl.com/", "wheelchair": "no"}}, {"type": "node", "id": 1201288314, "lat": 45.4975743, "lon": -73.576857, "tags": {"amenity": "restaurant", "automatic_door": "no", "cuisine": "pizza", "name": "California Pizza", "wheelchair": "no"}}, {"type": "node", "id": 1201303591, "lat": 45.4944023, "lon": -73.5788086, "tags": {"addr:housenumber": "1651", "addr:street": "Rue Sainte_Catherine Ouest", "amenity": "restaurant", "automatic_door": "no", "cuisine": "bubble_tea", "door": "hinged", "entrance": "yes", "name": "Ocha Bubble Tea", "wheelchair": "yes"}}, {"type": "node", "id": 1202560995, "lat": 45.4973665, "lon": -73.5720519, "tags": {"addr:housenumber": "1221", "addr:street": "Boulevard Ren\u00e9-L\u00e9vesque Ouest", "amenity": "restaurant", "cuisine": "steak_house", "internet_access": "wlan", "name": "Bier Markt Montreal", "opening_hours": "Mo-We 11:30-24:00, Th 11:30-02:00, Fr,Sa 11:30-03:00, Su 11:30-24:00", "wheelchair": "no"}}, {"type": "node", "id": 1202561108, "lat": 45.4992991, "lon": -73.5760644, "tags": {"amenity": "restaurant", "name": "Le Pois Pench\u00e9", "wheelchair": "yes"}}, {"type": "node", "id": 1202561222, "lat": 45.4973581, "lon": -73.5757908, "tags": {"amenity": "restaurant", "automatic_door": "no", "cuisine": "crepe", "name": "Paris Cr\u00eape", "wheelchair": "yes"}}, {"type": "node", "id": 1231398324, "lat": 45.4976921, "lon": -73.5783562, "tags": {"addr:housenumber": "2045", "addr:street": "Rue Bishop", "amenity": "restaurant", "cuisine": "sushi", "name": "Toro Sushi", "step_count": "4", "wheelchair": "no"}}, {"type": "node", "id": 1231398349, "lat": 45.4979195, "lon": -73.5789216, "tags": {"addr:street": "Rue Bishop", "amenity": "restaurant", "cuisine": "korean", "name": "Tianxia", "step_count": "8", "wheelchair": "no"}}, {"type": "node", "id": 1232026780, "lat": 45.4970237, "lon": -73.5809582, "tags": {"addr:housenumber": "1504", "addr:postcode": "H3G 1L3", "addr:street": "Rue Sherbrooke Ouest", "amenity": "restaurant", "name": "Bice Restaurant"}}, {"type": "node", "id": 1232026883, "lat": 45.4986885, "lon": -73.5785469, "tags": {"addr:housenumber": "2171", "addr:postcode": "H3G 2C1", "addr:street": "Rue Crescent", "amenity": "restaurant", "cuisine": "french", "name": "Troika"}}, {"type": "node", "id": 1232026955, "lat": 45.4986283, "lon": -73.5783698, "tags": {"addr:housenumber": "2137", "addr:postcode": "H3G 2C1", "addr:street": "Rue Crescent", "amenity": "restaurant", "cuisine": "french", "name": "L'Autre Saison", "wheelchair": "no"}}, {"type": "node", "id": 1232026967, "lat": 45.4982373, "lon": -73.5782196, "tags": {"addr:housenumber": "2100", "addr:street": "Rue Crescent", "amenity": "restaurant", "cuisine": "international", "name": "L'Acad\u00e9mie", "wheelchair": "no"}}, {"type": "node", "id": 1237960420, "lat": 45.4990103, "lon": -73.5731543, "tags": {"addr:housenumber": "1264", "addr:street": "Rue Stanley", "amenity": "restaurant", "cuisine": "italian", "name": "Restaurant Santa Lucia", "phone": "+1-514-393-8623"}}, {"type": "node", "id": 1237960466, "lat": 45.4982743, "lon": -73.5737766, "tags": {"amenity": "restaurant", "cuisine": "asian", "name": "Cit\u00e9s d'Asie"}}, {"type": "node", "id": 1237960501, "lat": 45.4988961, "lon": -73.5729384, "tags": {"amenity": "restaurant", "cuisine": "vietnamese", "name": "Chez Lien Plus"}}, {"type": "node", "id": 1246437091, "lat": 45.5560982, "lon": -73.557279}, {"type": "node", "id": 1270300326, "lat": 45.5155243, "lon": -73.5646563, "tags": {"addr:city": "Montr\u00e9al", "addr:housenumber": "1720", "addr:postcode": "H2X 3K6", "addr:province": "QC", "addr:street": "Rue Saint-Denis", "air_conditioning": "yes", "amenity": "restaurant", "check_date": "2023-03-13", "delivery": "yes", "diet:vegan": "only", "diet:vegetarian": "yes", "email": "stdenis@restovego.ca", "internet_access": "wlan", "name": "Resto V\u00e9go", "opening_hours": "Su-We 11:00-22:00; Th 11:00-22:30; Fr-Sa 11:00-23:00", "opening_hours:covid19": "Su-Mo 11:00-21:00; Tu-Sa 11:00-21:30", "outdoor_seating": "yes", "payment:interac": "yes", "payment:mastercard": "yes", "payment:visa": "yes", "phone": "+1-514-845-2627", "takeaway": "yes", "website": "https://www.restovego.ca/", "wheelchair": "no"}}, {"type": "node", "id": 1271378109, "lat": 45.518457, "lon": -73.5710862, "tags": {"addr:housenumber": "3706", "addr:postcode": "H2X 3L7", "addr:province": "QC", "addr:street": "Rue Saint-Denis", "addr:suburb": "Le Plateau-Mont-Royal", "amenity": "restaurant", "cuisine": "ethiopian", "fax": "+1-514-285-2304", "internet_access": "wlan", "name": "Le Nil Bleu", "phone": "+1-514-285-4628", "website": "www.nilbleu.ca"}}, {"type": "node", "id": 1271418874, "lat": 45.4974721, "lon": -73.5801931, "tags": {"amenity": "restaurant", "cuisine": "organic", "name": "Crudessence", "step_count": "6", "wheelchair": "no"}}, {"type": "node", "id": 1271418877, "lat": 45.4974156, "lon": -73.5801287, "tags": {"amenity": "restaurant", "name": "Riz en folie"}}, {"type": "node", "id": 1271672571, "lat": 45.5017674, "lon": -73.5703053, "tags": {"amenity": "restaurant", "cuisine": "italian", "name": "Boccacinos", "wheelchair": "limited"}}, {"type": "node", "id": 1278623199, "lat": 45.507945, "lon": -73.567699, "tags": {"amenity": "restaurant", "cuisine": "sushi", "name": "F bar", "opening_hours": "Mo-Fr 11:30-14:30, Mo-We 17:00-22:00, Th-Sa 17:00-23:00"}}, {"type": "node", "id": 1278632230, "lat": 45.5029147, "lon": -73.5695344, "tags": {"amenity": "restaurant", "cuisine": "american", "name": "Bofinger", "website": "https://www.bofinger.ca/", "wheelchair": "no"}}, {"type": "node", "id": 1281694745, "lat": 45.5015799, "lon": -73.5708526, "tags": {"amenity": "restaurant", "name": "Bistro le Cap Vert"}}, {"type": "node", "id": 1281694833, "lat": 45.5039801, "lon": -73.568077, "tags": {"amenity": "restaurant", "cuisine": "vietnamese", "name": "Pho Li Quoc Su"}}, {"type": "node", "id": 1281694896, "lat": 45.5032684, "lon": -73.567349, "tags": {"amenity": "restaurant", "name": "Jatoba"}}, {"type": "node", "id": 1281695006, "lat": 45.5035896, "lon": -73.5672613, "tags": {"amenity": "restaurant", "cuisine": "japanese", "name": "Le Carre"}}, {"type": "node", "id": 1282761406, "lat": 45.5059225, "lon": -73.5762818, "tags": {"amenity": "restaurant", "cuisine": "cafeteria", "name": "McConnell Cafe", "wheelchair": "yes"}}, {"type": "node", "id": 1287009159, "lat": 45.5235186, "lon": -73.5823578, "tags": {"addr:housenumber": "4458", "addr:street": "Rue Saint-Denis", "amenity": "restaurant", "check_date": "2023-03-04", "cuisine": "ice_cream", "name": "Cre\u0302merie Meu Meu", "payment:mastercard": "yes", "payment:visa": "yes"}}, {"type": "node", "id": 1290834879, "lat": 45.5005463, "lon": -73.5716378, "tags": {"addr:city": "Montr\u00e9al", "addr:housenumber": "1249", "addr:postcode": "H3B 2V5", "addr:province": "QC", "addr:street": "Rue Metcalfe", "amenity": "restaurant", "capacity": "75", "cuisine": "deli", "indoor_seating": "yes", "name": "Dunn's", "opening_hours": "24/7", "outdoor_seating": "yes", "phone": "+1-514-395-1927", "smoking": "no", "website": "https://www.dunnsfamous.com/", "wheelchair": "limited", "wikidata": "Q3041361", "wikipedia": "fr:Dunn's Famous"}}, {"type": "node", "id": 1290834973, "lat": 45.499439, "lon": -73.5719972, "tags": {"amenity": "restaurant", "name": "Caf\u00e9 R\u00e9publique"}}, {"type": "node", "id": 1290835014, "lat": 45.4992134, "lon": -73.5715949, "tags": {"amenity": "restaurant", "cuisine": "chinese", "name": "Le Piment Rouge", "wheelchair": "limited"}}, {"type": "node", "id": 1290835215, "lat": 45.4990489, "lon": -73.5712569, "tags": {"amenity": "restaurant", "cuisine": "spanish", "name": "El Diablo Rojo", "wheelchair": "limited"}}, {"type": "node", "id": 1302772180, "lat": 45.5000018, "lon": -73.568571, "tags": {"amenity": "restaurant", "cuisine": "french", "name": "Le Montr\u00e9alais Bistrot-bar", "wheelchair": "yes"}}, {"type": "node", "id": 1302772186, "lat": 45.5047298, "lon": -73.5647435, "tags": {"amenity": "restaurant", "name": "Caf\u00e9 Bistro La Tour"}}, {"type": "node", "id": 1302772193, "lat": 45.5049591, "lon": -73.5645691, "tags": {"amenity": "restaurant", "cuisine": "chinese", "name": "Yu Hang (L'Envol de Chine)"}}, {"type": "node", "id": 1302772204, "lat": 45.5001955, "lon": -73.5685737, "tags": {"amenity": "restaurant", "cuisine": "french", "name": "The Beaver Club", "wheelchair": "yes"}}, {"type": "node", "id": 1302772214, "lat": 45.5038181, "lon": -73.5661463, "tags": {"amenity": "restaurant", "name": "Bistro Imagination"}}, {"type": "node", "id": 1302772216, "lat": 45.5014795, "lon": -73.5673345, "tags": {"amenity": "restaurant", "cuisine": "steak_house", "name": "Vargas", "wheelchair": "yes"}}, {"type": "node", "id": 1302772219, "lat": 45.5005301, "lon": -73.5689733, "tags": {"addr:city": "Montr\u00e9al", "addr:housenumber": "5", "addr:postcode": "H3B 2G2", "addr:province": "Quebec", "addr:street": "Place Ville Marie", "amenity": "restaurant", "branch": "Place Ville Marie", "brand": "The Keg", "brand:wikidata": "Q7744066", "cuisine": "steak_house", "indoor_seating": "yes", "name": "The Keg", "opening_hours": "Mo-We 10:00-24:00, Tu-Fr 11:00-01:00, Sa 16:00-01:00, Su 16:00-24:00", "outdoor_seating": "no", "phone": "+1-514-868-1999", "website": "https://thekeg.com/en/locations/place-ville-marie", "website:en": "https://thekeg.com/en/locations/place-ville-marie", "website:fr": "https://thekeg.com/fr/restaurants/place-ville-marie", "wheelchair": "yes"}}, {"type": "node", "id": 1307144708, "lat": 45.500434, "lon": -73.5740597, "tags": {"amenity": "restaurant", "cuisine": "portuguese", "name": "Ferreira Caf\u00e9", "wheelchair": "yes"}}, {"type": "node", "id": 1307144733, "lat": 45.5005449, "lon": -73.5742751, "tags": {"amenity": "restaurant", "name": "Alexandre", "wheelchair": "no"}}, {"type": "node", "id": 1307399314, "lat": 45.5081057, "lon": -73.5613885, "tags": {"addr:city": "Montr\u00e9al", "addr:housenumber": "1110", "addr:street": "Rue Clark", "amenity": "restaurant", "name": "Kanbai", "name:ko": "Kanbai \uc0ac\ucc9c\uc694\ub9ac", "source": "NRCan-CanVec-7.0"}}, {"type": "node", "id": 1307401525, "lat": 45.5012166, "lon": -73.5564042, "tags": {"addr:city": "Montr\u00e9al", "addr:housenumber": "351", "addr:postcode": "H2Y 2A7", "addr:street": "Rue Saint-Paul Ouest", "amenity": "restaurant", "diet:vegetarian": "yes", "name": "Olive et Gourmando", "opening_hours": "Mo-Fr 08:00-17:00; Sa, Su 08:00-18:00", "phone": "+1 514-350-1083", "website": "https://oliveetgourmando.com"}}, {"type": "node", "id": 1314138586, "lat": 45.5332075, "lon": -73.584161, "tags": {"addr:housenumber": "1309", "addr:postcode": "H2J 1H4", "addr:province": "QC", "addr:street": "Rue Laurier Est", "addr:suburb": "Le Plateau-Mont-Royal", "amenity": "restaurant", "check_date": "2023-08-04", "cuisine": "coffee_shop", "internet_access": "wlan", "internet_access:fee": "no", "internet_access:operator": "\u00cele Sans Fil", "name": "Lapin Press\u00e9 Inc", "opening_hours": "Mo-Fr 07:30-18:00, Su 09:00-17:00, Sa 08:30-18:00", "payment:credit_cards": "yes", "payment:debit_cards": "yes", "phone": "+1 514 903 3555", "takeaway": "yes", "wheelchair": "no"}}, {"type": "node", "id": 1329147319, "lat": 45.5335067, "lon": -73.5510849, "tags": {"amenity": "restaurant", "check_date": "2023-03-04", "name": "Restaurant Bercy", "payment:interac": "yes", "payment:mastercard": "yes", "payment:visa": "yes", "wheelchair": "yes"}}, {"type": "node", "id": 1391407968, "lat": 45.478649, "lon": -73.5688606, "tags": {"addr:city": "Montreal", "addr:housenumber": "2556", "addr:postcode": "H3K 1J8", "addr:province": "QC", "addr:street": "Rue Centre", "amenity": "restaurant", "cuisine": "indian", "name": "Spicebros Sud Ouest", "website": "https://www.spicebros.com/"}}, {"type": "node", "id": 1391407983, "lat": 45.4796506, "lon": -73.5676656, "tags": {"amenity": "restaurant", "name": "Chez Paul"}}, {"type": "node", "id": 1420176890, "lat": 45.5321221, "lon": -73.6489173, "tags": {"amenity": "restaurant", "cuisine": "chicken", "name": "Roasters"}}, {"type": "node", "id": 1427593075, "lat": 45.432847, "lon": -73.6352984, "tags": {"addr:housenumber": "2101", "addr:postcode": "H8N 1S2", "addr:street": "Avenue Dollard", "amenity": "restaurant", "cuisine": "sushi", "name": "Sushi Plus", "opening_hours": "Mo-Su 11:00-15:00,17:00-21:30", "phone": "+1 514-366-8666", "takeaway": "yes", "website": "https://sushiplus.ca/"}}, {"type": "node", "id": 1427593076, "lat": 45.4315675, "lon": -73.6311027, "tags": {"addr:housenumber": "8520", "addr:postcode": "H8N 1Y5", "addr:province": "QC", "addr:street": "Boulevard Newman", "addr:suburb": "LaSalle", "amenity": "restaurant", "brand": "Scores", "brand:wikidata": "Q3476059", "brand:wikipedia": "fr:Scores", "cuisine": "chicken;barbecue", "internet_access": "wlan", "internet_access:fee": "no", "name": "Scores", "phone": "+1 514 595 3535", "website": "https://www.scores.ca/"}}, {"type": "node", "id": 1427593083, "lat": 45.4339305, "lon": -73.6287055, "tags": {"addr:housenumber": "8171", "addr:postcode": "H8N 1Y1", "addr:street": "Boulevard Newman", "amenity": "restaurant", "cuisine": "vietnamese", "name": "Chez Lien", "opening_hours": "Tu-Th 11:00-14:30,16:30-21:00; Fr 11:00-14:30,16:30-21:30; Su 16:30-21:30; Mo,Sa off", "payment:interac": "yes", "payment:mastercard": "yes", "payment:visa": "yes", "phone": "+1 514-364-0690"}}, {"type": "node", "id": 1429426113, "lat": 45.515097, "lon": -73.563143, "tags": {"amenity": "restaurant", "cuisine": "tapas", "name": "Confusion Tapas du Monde"}}, {"type": "node", "id": 1429426231, "lat": 45.515026, "lon": -73.562973, "tags": {"addr:city": "Montr\u00e9al", "addr:housenumber": "1621", "addr:postcode": "H2X 3K3", "addr:province": "QC", "addr:street": "Rue Saint-Denis", "amenity": "restaurant", "cuisine": "mexican", "name": "3 Amigos", "outdoor_seating": "yes", "phone": "+1 514 987 6868", "source": "http://www.3amigosrestaurant.com/Nousjoindre.cfm", "website": "http://www.3amigosrestaurant.com/"}}, {"type": "node", "id": 1429426247, "lat": 45.5158571, "lon": -73.5595172, "tags": {"amenity": "restaurant", "cuisine": "breakfast", "name": "Tutti Frutti"}}, {"type": "node", "id": 1429426343, "lat": 45.514703, "lon": -73.562299, "tags": {"addr:city": "Montr\u00e9al", "addr:housenumber": "1579", "addr:postcode": "H2X 3K3", "addr:street": "Rue Saint-Denis", "amenity": "restaurant", "check_date": "2023-09-07", "cuisine": "vietnamese", "name": "Vua Sandwichs", "outdoor_seating": "yes", "payment:credit_cards": "yes", "phone": "+1-514-439-1231", "website": "http://vuasandwichs.com/", "wheelchair": "no"}}, {"type": "node", "id": 1433216457, "lat": 45.56085, "lon": -73.657295, "tags": {"addr:street": "Rue Fleury Est", "amenity": "restaurant", "cuisine": "vietnamese", "name": "La Citronelle"}}, {"type": "node", "id": 1433218561, "lat": 45.5358868, "lon": -73.665118, "tags": {"amenity": "restaurant", "cuisine": "japanese"}}, {"type": "node", "id": 1448219709, "lat": 45.5135558, "lon": -73.57267, "tags": {"amenity": "restaurant", "check_date": "2023-09-22", "name": "Restaurant Au 14 Price-Arthur", "wheelchair": "yes"}}, {"type": "node", "id": 1456305075, "lat": 45.5267463, "lon": -73.5886203, "tags": {"amenity": "restaurant", "name": "La Petite Marche", "opening_hours": "Su-Fr 08:00-01:00, Sa 08:00-02:00"}}, {"type": "node", "id": 1456706544, "lat": 45.5190695, "lon": -73.5965542, "tags": {"addr:city": "Montr\u00e9al", "addr:housenumber": "381", "addr:province": "Qu\u00e9bec", "addr:street": "Avenue Laurier Ouest", "amenity": "restaurant", "name": "Fiorellino", "wheelchair": "limited"}}, {"type": "node", "id": 1458149800, "lat": 45.4959527, "lon": -73.620277}, {"type": "node", "id": 1515928358, "lat": 45.4943664, "lon": -73.5804592, "tags": {"addr:housenumber": "1452", "addr:street": "Rue Saint Mathieu", "amenity": "restaurant", "check_date": "2023-09-09", "cuisine": "vietnamese", "name": "Pho Nguyen"}}, {"type": "node", "id": 1531366540, "lat": 45.4874495, "lon": -73.5869319, "tags": {"addr:housenumber": "4114", "addr:street": "Rue Sainte-Catherine Ouest", "amenity": "restaurant", "cuisine": "cake", "designation": "Dessert", "name": "Calories"}}, {"type": "node", "id": 1537166697, "lat": 45.5246767, "lon": -73.6258609, "tags": {"amenity": "restaurant", "automatic_door": "no", "cuisine": "indian", "entrance": "yes", "name": "Bombay Mahal", "wheelchair": "no"}}, {"type": "node", "id": 1537662923, "lat": 45.5337157, "lon": -73.6046218, "tags": {"addr:city": "Montr\u00e9al", "addr:housenumber": "6414", "addr:street": "Rue Saint-Denis", "amenity": "restaurant", "capacity": "75", "cuisine": "vietnamese", "name": "Pho' T\u00e2y H\u00f4", "opening_hours": "Mo,We-Su 11:30-20:30", "phone": "+1 514-273-5627", "smoking": "no", "wheelchair": "yes"}}, {"type": "node", "id": 1549087575, "lat": 45.4988357, "lon": -73.572815, "tags": {"addr:postcode": "H3B 2S7", "amenity": "restaurant", "cuisine": "chinese", "name": "Buffet Ka Lo Hin", "phone": "+1 514 871 8099"}}, {"type": "node", "id": 1558378068, "lat": 45.5010019, "lon": -73.5768406, "tags": {"amenity": "restaurant", "cuisine": "indian", "indoor_seating": "yes", "name": "Le Taj", "outdoor_seating": "no", "phone": "+1 514 845 9015", "website": "https://www.restaurantletaj.com/", "wheelchair": "yes"}}, {"type": "node", "id": 1558688304, "lat": 45.5190121, "lon": -73.5941039, "tags": {"addr:city": "Montr\u00e9al", "addr:housenumber": "4903", "addr:postcode": "H2V 4E7", "addr:province": "QC", "addr:street": "Avenue du Parc", "amenity": "restaurant", "cuisine": "breakfast", "name": "L'Oeufrier", "wheelchair": "yes"}}, {"type": "node", "id": 1558689198, "lat": 45.519169, "lon": -73.594976, "tags": {"amenity": "restaurant", "created_by": "iLOE 1.9", "cuisine": "vietnamese", "name": "Tini"}}, {"type": "node", "id": 1560683990, "lat": 45.5275334, "lon": -73.6236988, "tags": {"addr:housenumber": "654", "addr:street": "Rue Jean-Talon Ouest", "amenity": "restaurant", "automatic_door": "no", "cuisine": "greek", "entrance": "yes", "name": "Souvlaki Village Grec", "phone": "+1-514-274-4371;+1-514-274-4372", "wheelchair": "bad"}}, {"type": "node", "id": 1566544895, "lat": 45.5140217, "lon": -73.557839, "tags": {"amenity": "restaurant", "name": "Restaurant Il Cavliere"}}, {"type": "node", "id": 1570283306, "lat": 45.5209031, "lon": -73.5975468, "tags": {"addr:housenumber": "275", "addr:postcode": "H2V 0A1", "addr:province": "QC", "addr:street": "Avenue Fairmount Ouest", "addr:suburb": "Outremont", "amenity": "restaurant", "cuisine": "italian", "internet_access": "wlan", "internet_access:fee": "no", "name": "Kest\u00e9", "phone": "+1 514 509 1341", "website": "https://www.voro.ca/", "wheelchair": "yes"}}, {"type": "node", "id": 1570283309, "lat": 45.519294, "lon": -73.5983048, "tags": {"amenity": "restaurant", "cuisine": "mediterranean", "name": "Rumi"}}, {"type": "node", "id": 1571409549, "lat": 45.5163867, "lon": -73.5777906, "tags": {"amenity": "restaurant", "cuisine": "chicken", "name": "Coco Rico", "not:brand:wikidata": "Q65084369", "wheelchair": "no"}}, {"type": "node", "id": 1571409581, "lat": 45.5162542, "lon": -73.5774915, "tags": {"addr:housenumber": "3891", "addr:street": "Boul. Saint-Laurent", "amenity": "restaurant", "cuisine": "pizza", "description": "Authentic Italian pizza restaurant.", "name": "Prato Cafe Pizza", "opening_hours": "Mo-We 11:30-22:00; Th, Fr 11:30-23:00; Sa 14:30-23:00", "phone": "+1-514-285-1616", "website": "https://m.facebook.com/pages/Prato-Pizzeria-Cafe/", "wheelchair": "yes"}}, {"type": "node", "id": 1571409628, "lat": 45.5160221, "lon": -73.5756285, "tags": {"amenity": "restaurant", "cuisine": "tex-mex", "name": "Icehouse", "wheelchair": "no"}}, {"type": "node", "id": 1571409655, "lat": 45.5167881, "lon": -73.5787144, "tags": {"addr:housenumber": "3991", "addr:street": "Boulevard Saint-Laurent", "amenity": "restaurant", "cuisine": "breton", "name": "Breizh Caf\u00e9", "phone": "+1-514-419-5634", "website": "https://www.lebreizhcafe.com/"}}, {"type": "node", "id": 1571409685, "lat": 45.5161755, "lon": -73.577329, "tags": {"amenity": "restaurant", "name": "Janos"}}, {"type": "node", "id": 1571409698, "lat": 45.5168163, "lon": -73.5787869, "tags": {"addr:city": "Montr\u00e9al", "addr:housenumber": "3995", "addr:postcode": "H2W 1Y4", "addr:province": "QC", "addr:street": "Boulevard Saint-Laurent", "amenity": "restaurant", "ele": "0", "name": "Le Vieux St-Laurent", "opening_hours": "Mo-Sa 6:30- 16:00, Su 7:30- 16:00", "payment:cash": "yes", "payment:credit_cards": "yes", "payment:debit_cards": "yes", "phone": "+1-514-848-0983", "wheelchair": "no"}}, {"type": "node", "id": 1571409720, "lat": 45.5165164, "lon": -73.5781111, "tags": {"amenity": "restaurant", "name": "Casa Minhota"}}, {"type": "node", "id": 1571507529, "lat": 45.518188, "lon": -73.578436, "tags": {"amenity": "restaurant", "cuisine": "portuguese", "name": "Na Brasa"}}, {"type": "node", "id": 1572066046, "lat": 45.5187436, "lon": -73.5836323, "tags": {"addr:city": "Montr\u00e9al", "addr:housenumber": "4306", "addr:province": "QC", "addr:street": "Rue Saint-Denis", "amenity": "restaurant", "name": "Omnivore", "opening_hours": "Mo-Su 11:00-22:00", "wheelchair": "no"}}, {"type": "node", "id": 1573441843, "lat": 45.5151322, "lon": -73.5756221, "tags": {"amenity": "restaurant", "name": "514 Burger"}}, {"type": "node", "id": 1573455206, "lat": 45.5188389, "lon": -73.5838873, "tags": {"amenity": "restaurant", "cuisine": "regional", "name": "Bagel Etc."}}, {"type": "node", "id": 1573455210, "lat": 45.5160395, "lon": -73.5776928, "tags": {"addr:housenumber": "3872", "addr:postcode": "H2W 1Y2", "addr:province": "QC", "addr:street": "Boulevard Saint-Laurent", "addr:suburb": "Le Plateau-Mont-Royal", "amenity": "restaurant", "cuisine": "regional", "fax": "+1-514-843-7636", "internet_access": "wlan", "name": "La Cabane du Portugal", "phone": "+1 514 843 7283", "wheelchair": "limited"}}, {"type": "node", "id": 1573455217, "lat": 45.5163224, "lon": -73.5783646, "tags": {"amenity": "restaurant", "cuisine": "chinese", "name": "Petit Poisson Dumpling", "wheelchair": "no"}}, {"type": "node", "id": 1573682000, "lat": 45.519587, "lon": -73.5848515, "tags": {"addr:housenumber": "4403", "addr:street": "Boulevard Saint-Laurent", "amenity": "restaurant", "cuisine": "portuguese", "name": "Aldea"}}, {"type": "node", "id": 1573682016, "lat": 45.5196169, "lon": -73.5849286, "tags": {"addr:housenumber": "4409", "addr:postcode": "H2W 1Z8", "addr:street": "Boulevard Saint-Laurent", "amenity": "restaurant", "cuisine": "sushi", "name": "Osuka Sushi", "opening_hours:url": "https://www.osukasushi.com/", "phone": "+1 514 564  5999", "website": "https://www.osukasushi.com/"}}, {"type": "node", "id": 1575104801, "lat": 45.5092711, "lon": -73.5727403, "tags": {"amenity": "restaurant", "cuisine": "japanese", "name": "Isakaya", "wheelchair": "yes"}}, {"type": "node", "id": 1584996995, "lat": 45.5362786, "lon": -73.5711739, "tags": {"addr:housenumber": "2190", "addr:street": "Avenue du Mont-Royal Est", "amenity": "restaurant", "check_date": "2024-02-17", "cuisine": "sushi", "name": "Kasa Sushi", "opening_hours": "10:00-22:00"}}, {"type": "node", "id": 1585019102, "lat": 45.520459, "lon": -73.586207, "tags": {"amenity": "restaurant", "created_by": "iLOE 1.9", "cuisine": "sushi", "name": "Ichi Sushi"}}, {"type": "node", "id": 1585848275, "lat": 45.4788556, "lon": -73.5684873, "tags": {"amenity": "restaurant", "cuisine": "indian", "name": "Le Bombay"}}, {"type": "node", "id": 1585848284, "lat": 45.4786725, "lon": -73.5692527, "tags": {"amenity": "restaurant", "cuisine": "pizza", "internet_access": "wlan", "name": "Pizza Charlevoix"}}, {"type": "node", "id": 1588964288, "lat": 45.5151056, "lon": -73.5748787, "tags": {"amenity": "restaurant", "name": "Kanu Ono"}}, {"type": "node", "id": 1593947892, "lat": 45.515328, "lon": -73.5635865, "tags": {"amenity": "restaurant", "cuisine": "sushi", "name": "Sushi St-Denis"}}, {"type": "node", "id": 1595014357, "lat": 45.504837, "lon": -73.57044, "tags": {"amenity": "restaurant", "name": "The Bay Restaurant", "wheelchair": "yes"}}, {"type": "node", "id": 1598954224, "lat": 45.4948673, "lon": -73.6551608, "tags": {"amenity": "restaurant", "cuisine": "greek", "name": "Marathon Souvlaki"}}, {"type": "node", "id": 1598954876, "lat": 45.4946003, "lon": -73.6555254, "tags": {"amenity": "restaurant", "cuisine": "american", "name": "B\u00e2ton Rouge"}}, {"type": "node", "id": 1601572069, "lat": 45.4985716, "lon": -73.5519676}, {"type": "node", "id": 1601572072, "lat": 45.4985773, "lon": -73.5520659}, {"type": "node", "id": 1601572075, "lat": 45.4986115, "lon": -73.5520611}, {"type": "node", "id": 1601572078, "lat": 45.4984784, "lon": -73.5519754}, {"type": "node", "id": 1601572080, "lat": 45.4986217, "lon": -73.5522616}, {"type": "node", "id": 1601572083, "lat": 45.4984934, "lon": -73.5522742}, {"type": "node", "id": 1605286511, "lat": 45.544562, "lon": -73.6277275, "tags": {"addr:city": "Montreal", "addr:housenumber": "618", "addr:postcode": "H2P 1V7", "addr:province": "QC", "addr:street": "Jarry Est", "amenity": "restaurant", "brand": "Mikes", "brand:wikidata": "Q3313615", "brand:wikipedia": "fr:Toujours Mikes", "cuisine": "pizza;pasta;sandwich", "name": "Mikes", "phone": "+1 438 380-1547", "website": "https://toujoursmikes.ca/", "wheelchair": "limited"}}, {"type": "node", "id": 1605679452, "lat": 45.495359, "lon": -73.568987, "tags": {"addr:housenumber": "1205", "addr:street": "Rue Saint-Antoine Ouest", "amenity": "restaurant", "created_by": "iLOE 1.9", "name": "La Mise au Jeu", "wheelchair": "yes"}}, {"type": "node", "id": 1609177552, "lat": 45.513486, "lon": -73.566373, "tags": {"addr:housenumber": "2004", "addr:street": "Avenue de l'H\u00f4tel-de-Ville", "amenity": "restaurant", "cuisine": "french", "name": "Grenadine"}}, {"type": "node", "id": 1609256996, "lat": 45.568637, "lon": -73.591246, "tags": {"amenity": "restaurant", "created_by": "iLOE 1.9", "cuisine": "chinese", "name": "Fu Lam Buffet Wok & Grill"}}, {"type": "node", "id": 1613759115, "lat": 45.517669, "lon": -73.581819, "tags": {"addr:street": "Rue Rachel Ouest", "amenity": "restaurant", "created_by": "iLOE 1.9", "cuisine": "portuguese", "name": "Boca Iberica"}}, {"type": "node", "id": 1621008920, "lat": 45.4565614, "lon": -73.5470145, "tags": {"addr:city": "Verdun", "addr:housenumber": "278", "addr:postcode": "H3E 1C9", "addr:street": "Rue Elgar", "amenity": "restaurant", "cuisine": "french", "name": "La Socca", "website": "https://www.lasocca.com/"}}, {"type": "node", "id": 1621008924, "lat": 45.4689889, "lon": -73.5415102, "tags": {"amenity": "restaurant", "contact:phone": "+1 514 768 1888", "contact:website": "https://www.restobananier.com/?lang=fr", "cuisine": "thai", "name": "Bananier", "opening_hours": "We-Fr 11:30-14:30,17:00-21:30; Sa,Su 17:00-21:30", "takeaway": "yes"}}, {"type": "node", "id": 1624776783, "lat": 45.524942, "lon": -73.6257073, "tags": {"addr:housenumber": "989", "addr:postcode": "H3N 1T2", "addr:street": "Jean-Talon Ouest", "amenity": "restaurant", "cuisine": "indian", "name": "Dehli-Bombay", "phone": "+1-514-271-6000", "source": "business card"}}, {"type": "node", "id": 1643704054, "lat": 45.4827833, "lon": -73.5756681, "tags": {"addr:housenumber": "2523", "addr:street": "Rue Notre-Dame Ouest", "amenity": "restaurant", "cuisine": "burger", "name": "Dilalo Burger"}}, {"type": "node", "id": 1643704057, "lat": 45.4828215, "lon": -73.575595, "tags": {"addr:city": "Montreal", "addr:housenumber": "2519", "addr:street": "Rue Notre-Dame Ouest", "amenity": "restaurant", "name": "Le Vin Papillon"}}, {"type": "node", "id": 1643704155, "lat": 45.4826468, "lon": -73.5754253, "tags": {"addr:housenumber": "2518", "addr:street": "rue Notre-Dame Ouest", "amenity": "restaurant", "cuisine": "taqueria", "name": "El Gordo", "smoking": "no"}}, {"type": "node", "id": 1643704193, "lat": 45.4830769, "lon": -73.5751925, "tags": {"amenity": "restaurant", "cuisine": "french;seafood", "name": "Joe Beef", "wikidata": "Q6208563"}}, {"type": "node", "id": 1643704197, "lat": 45.4830314, "lon": -73.5748574, "tags": {"addr:city": "Montr\u00e9al", "addr:housenumber": "2472", "addr:postcode": "H3J 1N5", "addr:province": "Qu\u00e9bec", "addr:street": "Rue Notre-Dame Ouest", "amenity": "restaurant", "cuisine": "mexican", "description": "Resto-bar avec bonne s\u00e9lection de cocktails, grilled cheese, tacos et autres repas l\u00e9gers. L'endroit est plut\u00f4t con\u00e7u comme un bar, mais il faut manger pour consommer de l'alcool.", "name": "L'Gros Luxe", "opening_hours": "Mo-We 17:00-23:00; Th,Fr 11:30-24:00; Sa 11:00-24:00; Su 11:00-23:00", "smoking": "no", "website": "http://www.lgrosluxe.com/#about"}}, {"type": "node", "id": 1643704211, "lat": 45.4827001, "lon": -73.5753256, "tags": {"addr:housenumber": "2504", "addr:postcode": "H3J 1N5", "addr:province": "QC", "addr:street": "Rue Notre-Dame Ouest", "addr:suburb": "Le Sud Ouest", "amenity": "restaurant", "cuisine": "pizza", "internet_access": "wlan", "name": "Geppetto Pizzeria", "phone": "+1 514 903 3737", "website": "https://geppettopizza.com/"}}, {"type": "node", "id": 1647591005, "lat": 45.5319723, "lon": -73.6026369, "tags": {"addr:city": "Montr\u00e9al", "addr:housenumber": "351", "addr:postcode": "H2S 1X1", "addr:street": "Bellechasse est", "amenity": "restaurant", "cuisine": "italian;pizza", "delivery": "no", "name": "Elio Pizzeria Ristorante", "phone": "+1-514-276-5341", "smoking": "no", "takeaway": "yes", "website": "https://www.eliopizzeria.ca/"}}, {"type": "node", "id": 1653828309, "lat": 45.5192588, "lon": -73.5847369, "tags": {"amenity": "restaurant", "cuisine": "tibetan;indian", "name": "Om"}}, {"type": "node", "id": 1654276992, "lat": 45.5242232, "lon": -73.6001471, "tags": {"amenity": "restaurant", "name": "Restaurant B&M"}}, {"type": "node", "id": 1666298032, "lat": 45.520502, "lon": -73.582612, "tags": {"amenity": "restaurant", "created_by": "iLOE 1.9", "cuisine": "portuguese", "name": "Chez Doval", "opening_hours": "Mo-Su 09:00-23:00", "wheelchair": "no"}}, {"type": "node", "id": 1666310595, "lat": 45.522213, "lon": -73.581084, "tags": {"addr:city": "Montr\u00e9al", "addr:housenumber": "330", "addr:postcode": "H2W 1B1", "addr:province": "Qu\u00e9bec", "addr:street": "Rue Marie-Anne Est", "amenity": "restaurant", "cuisine": "french", "name": "Le P'tit Plateau", "phone": "+1 514 282 6342"}}, {"type": "node", "id": 1666502004, "lat": 45.5167797, "lon": -73.5669269, "tags": {"addr:housenumber": "2115", "addr:street": "Rue Saint-Denis", "air_conditioning": "yes", "amenity": "restaurant", "cuisine": "asian;japanese;thai;fusion;chinese", "diet:vegan": "yes", "diet:vegetarian": "yes", "level": "0", "name": "OPLANTE", "opening_hours": "Tu-Fr 12:00-14:30,16:00-20:30; Sa 14:30-20:30", "payment:cash": "yes", "payment:contactless": "yes", "payment:credit_cards": "yes", "payment:debit_cards": "yes", "phone": "+15148480513", "reservation": "recommended", "website": "https://oplante.ca/", "wheelchair": "yes"}}, {"type": "node", "id": 1667757381, "lat": 45.4360826, "lon": -73.627031, "tags": {"amenity": "restaurant", "brand": "St-Hubert", "brand:wikidata": "Q3495225", "brand:wikipedia": "fr:St-Hubert (restaurant)", "cuisine": "chicken;barbecue", "name": "St-Hubert"}}, {"type": "node", "id": 1669172081, "lat": 45.466458, "lon": -73.6233498, "tags": {"addr:city": "Montr\u00e9al", "addr:housenumber": "6202", "addr:province": "QC", "addr:street": "Rue Sherbrooke Ouest", "amenity": "restaurant", "cuisine": "middle_eastern", "name": "Boustan"}}, {"type": "node", "id": 1684503334, "lat": 45.5224349, "lon": -73.6022478, "tags": {"amenity": "restaurant", "name": "Cava"}}, {"type": "node", "id": 1684511582, "lat": 45.5258213, "lon": -73.5992267, "tags": {"amenity": "restaurant", "cuisine": "caribbean", "name": "Jardin du Cari", "phone": "+1-514-495-0565", "wheelchair": "limited"}}, {"type": "node", "id": 1696580551, "lat": 45.5173008, "lon": -73.573356, "tags": {"addr:housenumber": "233", "addr:postcode": "H2X 3B6", "addr:street": "Avenue Des Pins Est", "amenity": "restaurant", "cuisine": "turkish", "name": "Patate Au Four", "website": "http://www.bakedpotatoshop.com", "wheelchair": "limited"}}, {"type": "node", "id": 1731961714, "lat": 45.504985, "lon": -73.5518999}, {"type": "node", "id": 1731961715, "lat": 45.5049919, "lon": -73.5517638}, {"type": "node", "id": 1743943124, "lat": 45.535198, "lon": -73.6170635, "tags": {"amenity": "restaurant", "name": "\u0153ufs", "name:fr": "\u0153ufs"}}, {"type": "node", "id": 1743943155, "lat": 45.5352957, "lon": -73.6169669, "tags": {"addr:housenumber": "60", "addr:street": "Rue Jean-Talon Est", "amenity": "restaurant", "name": "Kitchen Galerie"}}, {"type": "node", "id": 1743944631, "lat": 45.5344803, "lon": -73.615438, "tags": {"amenity": "restaurant", "name:signed": "no"}}, {"type": "node", "id": 1743945343, "lat": 45.5343691, "lon": -73.612704, "tags": {"addr:city": "Montr\u00e9al", "addr:housenumber": "189", "addr:postcode": "H2S 1K1", "addr:province": "QC", "addr:street": "Rue Dante", "amenity": "restaurant", "check_date": "2023-03-04", "cuisine": "italian", "name": "Pizzeria Napoletana", "opening_hours": "Mo-Th 11:00-22:30; Fr-Sa 11:00-23:30; Su 12:00-22:30", "payment:interac": "yes", "payment:mastercard": "yes", "payment:visa": "yes", "phone": "+1-514-276-8226", "website": "https://www.napoletana.com/"}}, {"type": "node", "id": 1743949212, "lat": 45.5247049, "lon": -73.5954835, "tags": {"amenity": "restaurant", "cuisine": "pizza", "name": "Pizz\u00e9ria Magpie"}}, {"type": "node", "id": 1743949895, "lat": 45.5229215, "lon": -73.5955704, "tags": {"addr:housenumber": "5201", "addr:postcode": "H2T 2W8", "addr:province": "QC", "addr:street": "Rue Saint-Urbain", "addr:suburb": "Le Plateau-Mont-Royal", "amenity": "restaurant", "cuisine": "chilean", "internet_access": "wlan", "name": "De Aragon", "phone": "+1 514 270 7369"}}, {"type": "node", "id": 1743950057, "lat": 45.5226181, "lon": -73.5958791, "tags": {"amenity": "restaurant", "check_date": "2022-12-30", "cuisine": "asian", "description": "Nourriture cor\u00e9enne", "name": "La Belle Cor\u00e9e", "payment:mastercard": "yes", "payment:visa": "yes"}}, {"type": "node", "id": 1743950282, "lat": 45.5264082, "lon": -73.5900536, "tags": {"addr:city": "Montr\u00e9al", "addr:housenumber": "351", "addr:postcode": "H2T 1G7", "addr:province": "Qu\u00e9bec", "addr:street": "Avenue Laurier Est", "amenity": "restaurant", "cuisine": "poutine;burger;quebecois", "drive_through": "yes", "name": "Chez Claudette", "opening_hours": "Mo-Fr 16:00-22:00; Sa-Su 11:00-22:00", "payment:cash": "yes", "payment:credit_cards": "yes", "payment:debit_cards": "yes", "phone": "514-279-5173", "takeaway": "yes"}}, {"type": "node", "id": 1750703326, "lat": 45.5342993, "lon": -73.5701588, "tags": {"addr:city": "Montr\u00e9al", "addr:housenumber": "4351", "addr:postcode": "H2H 2B3", "addr:province": "Qu\u00e9bec", "addr:street": "Avenue de Lorimier", "amenity": "restaurant", "check_date": "2023-03-26", "cuisine": "regional;burger;poutine;breakfast", "name": "Maam Bolduc", "opening_hours": "Mo-Su 08:00-22:00", "payment:mastercard": "yes", "payment:visa": "yes"}}, {"type": "node", "id": 1751223587, "lat": 45.5470737, "lon": -73.6421055, "tags": {"amenity": "restaurant"}}, {"type": "node", "id": 1751233709, "lat": 45.5467107, "lon": -73.6394822, "tags": {"amenity": "restaurant"}}, {"type": "node", "id": 1751293462, "lat": 45.5549765, "lon": -73.6536259, "tags": {"amenity": "restaurant"}}, {"type": "node", "id": 1751347372, "lat": 45.5752512, "lon": -73.648001, "tags": {"amenity": "restaurant", "name": "Fleur d'Asie"}}, {"type": "node", "id": 1768319293, "lat": 45.5441223, "lon": -73.6280362, "tags": {"addr:city": "Montreal", "addr:housenumber": "590", "addr:postcode": "H2P 1V5", "addr:province": "QC", "addr:street": "Jarry Est", "amenity": "restaurant", "cuisine": "fast_food;breakfast", "delivery": "yes", "name": "Restaurant Qu\u00e9bec D\u00e9li", "phone": "+1-514-273-2833", "takeaway": "yes", "wheelchair": "no"}}, {"type": "node", "id": 1769350985, "lat": 45.5507681, "lon": -73.6143865}, {"type": "node", "id": 1769350987, "lat": 45.5509838, "lon": -73.6145634}, {"type": "node", "id": 1769350997, "lat": 45.5508971, "lon": -73.6146911}, {"type": "node", "id": 1790486553, "lat": 45.5387281, "lon": -73.6243587, "tags": {"addr:housenumber": "171", "addr:street": "Villeray", "amenity": "restaurant", "check_date": "2023-03-04", "cuisine": "bavarian", "name": "Frite Alors!", "payment:interac": "yes", "payment:mastercard": "yes", "payment:visa": "yes", "website": "https://fritealors.com/"}}, {"type": "node", "id": 1790486605, "lat": 45.5408861, "lon": -73.6227426, "tags": {"addr:housenumber": "7685", "addr:street": "St-Denis", "amenity": "restaurant", "cuisine": "international", "name": "Restaurant Jonas"}}, {"type": "node", "id": 1816339704, "lat": 45.5241684, "lon": -73.5946349, "tags": {"addr:city": "Montr\u00e9al", "addr:housenumber": "9", "addr:postcode": "H2T 1C7", "addr:province": "Qu\u00e9bec", "addr:street": "Avenue Fairmount Est", "air_conditioning": "yes", "amenity": "restaurant", "brewery": "yes;brewery=hill_farmstead", "check_date": "2022-12-30", "cuisine": "european;fine_dining", "indoor_seating": "yes", "name": "Lawrence", "opening_hours": "Th-Sa 18:00-22:00", "outdoor_seating": "no", "payment:american_express": "yes", "payment:cash": "yes", "payment:credit_cards": "yes", "payment:debit_cards": "yes", "payment:mastercard": "yes", "payment:visa": "yes", "phone": "+1 514 796 5686", "reservation": "recommended", "url": "https://lawrencemtl.com/lawrence/", "website": "https://lawrencemtl.com/lawrence/"}}, {"type": "node", "id": 1843995396, "lat": 45.5072269, "lon": -73.6617203, "tags": {"addr:housenumber": "2356", "addr:postcode": "H3R 2J8", "addr:province": "QC", "addr:street": "Chemin Lucerne", "addr:suburb": "Mont-Royal", "amenity": "restaurant", "internet_access": "wlan", "name": "Ben & Florentine", "phone": "+1 514 733 7337", "website": "www.benandflorentine.com"}}, {"type": "node", "id": 1859173282, "lat": 45.5198493, "lon": -73.5861322, "tags": {"addr:housenumber": "4448", "addr:postcode": "H2W 1Z5", "addr:province": "QC", "addr:street": "Boulevard Saint-Laurent", "addr:suburb": "Le Plateau-Mont-Royal", "alt_name": "Allo Mon Coco", "amenity": "restaurant", "brand": "All\u00f4! Mon Coco", "check_date": "2023-08-26", "cuisine": "breakfast", "internet_access": "wlan", "internet_access:fee": "customers", "name": "All\u00f4! Mon Coco", "opening_hours": "Mo-Su 07:00-16:00", "payment:interac": "yes", "payment:mastercard": "yes", "payment:visa": "yes", "website": "https://allomoncoco.com/", "wheelchair": "yes"}}, {"type": "node", "id": 1924410682, "lat": 45.4888685, "lon": -73.8508121, "tags": {"addr:city": "Pierrefonds", "addr:housenumber": "4800", "addr:postcode": "H9H 5G9", "addr:street": "Boulevard Saint-Jean", "amenity": "restaurant", "contact:phone": "+1-514-620-8944", "cuisine": "chinese", "name": "Jardin de P\u00e9kin"}}, {"type": "node", "id": 1930089138, "lat": 45.5027218, "lon": -73.8402512, "tags": {"addr:housenumber": "12990", "addr:postcode": "H8Z 1W9", "addr:street": "Boulevard Gouin Ouest", "amenity": "restaurant", "name": "Brasserie Fredmir"}}, {"type": "node", "id": 1960957424, "lat": 45.4411709, "lon": -73.693116}, {"type": "node", "id": 1960957429, "lat": 45.441382, "lon": -73.6928545}, {"type": "node", "id": 1960957431, "lat": 45.4413607, "lon": -73.6931444}, {"type": "node", "id": 1960957433, "lat": 45.4410955, "lon": -73.693175}, {"type": "node", "id": 1960957435, "lat": 45.441122, "lon": -73.6928155}, {"type": "node", "id": 1960957437, "lat": 45.4411658, "lon": -73.6931855}, {"type": "node", "id": 2047449792, "lat": 45.5379778, "lon": -73.610972, "tags": {"addr:housenumber": "436", "addr:postcode": "H2S 1G2", "addr:street": "B\u00e9langer", "amenity": "restaurant", "cuisine": "mexican", "email": "info@saborlatino.ca", "name": "Sabor Latino", "phone": "+1-514-277-4130", "website": "https://www.saborlatino.ca/"}}, {"type": "node", "id": 2047449793, "lat": 45.5339092, "lon": -73.6044303, "tags": {"addr:housenumber": "6425", "addr:postcode": "H2S 2R8", "addr:street": "St-Denis", "amenity": "restaurant", "cuisine": "vietnamese", "name": "Ylan", "phone": "+1-514-495-3812"}}, {"type": "node", "id": 2047457957, "lat": 45.5287971, "lon": -73.6229144, "tags": {"addr:housenumber": "454", "addr:postcode": "H3N 1R3", "addr:street": "Jean-Talon Ouest", "amenity": "restaurant", "automatic_door": "no", "cuisine": "indian", "entrance": "yes", "image": "http://www.restoindiasoven.com/images/8.jpg", "name": "India's oven", "opening_hours": "Tu-Th 11:00-22:30; Fr-Sa 11:00-23:00; Su 11:00-22:30", "phone": "+1-514-509-8678", "website": "https://www.restoindiasoven.com/", "wheelchair": "no"}}, {"type": "node", "id": 2079833093, "lat": 45.5235496, "lon": -73.6058285, "tags": {"amenity": "restaurant", "check_date": "2023-09-27", "cuisine": "chinese", "name": "Szechwan et Nouille"}}, {"type": "node", "id": 2084778310, "lat": 45.521233, "lon": -73.58839, "tags": {"addr:housenumber": "4631", "addr:postcode": "H2T 1R2", "addr:street": "Boulevard Saint-Laurent", "amenity": "restaurant", "diet:vegan": "only", "name": "Aux Vivres", "opening_hours": "Mo-Fr 11:00-23:00; Sa-Su 10:00-23:00", "outdoor_seating": "yes", "takeaway": "yes", "website": "https://www.auxvivres.com/", "wheelchair": "yes"}}, {"type": "node", "id": 2117177625, "lat": 45.5218193, "lon": -73.5702527, "tags": {"addr:city": "Montr\u00e9al", "addr:housenumber": "3807", "addr:postcode": "H2L 3V9", "addr:province": "Quebec", "addr:street": "Rue Saint-Andr\u00e9", "amenity": "restaurant", "cuisine": "vietnamese", "name": "Bistro C\u00d4 \u00daT", "opening_hours": "Tu-Su 11:30-14:30,17:00-22:00; Fr,Sa 11:30-14:30,17:00-22:30", "phone": "+15145041306", "website": "https://www.co-ut.ca/"}}, {"type": "node", "id": 2121629982, "lat": 45.5724188, "lon": -73.5868924}, {"type": "node", "id": 2172009089, "lat": 45.4802634, "lon": -73.5794944, "tags": {"amenity": "restaurant", "cuisine": "japanese", "name": "Eko Sushi"}}, {"type": "node", "id": 2172009092, "lat": 45.4802182, "lon": -73.5795656, "tags": {"amenity": "restaurant", "cuisine": "african", "name": "Gracia Afrika"}}, {"type": "node", "id": 2172009097, "lat": 45.4805882, "lon": -73.5788579, "tags": {"addr:city": "Montr\u00e9al", "addr:housenumber": "3400", "addr:street": "Rue Notre-Dame Ouest", "amenity": "restaurant", "cuisine": "chinese", "name": "Kam Wing", "opening_hours": "Mo-Fr 11:00-14:30,17:00-22:00; Sa,Su 17:00-22:00"}}, {"type": "node", "id": 2172009098, "lat": 45.4812293, "lon": -73.5781973, "tags": {"addr:city": "Montr\u00e9al", "addr:housenumber": "3001", "addr:street": "Rue Notre-Dame Ouest", "amenity": "restaurant", "cuisine": "regional", "min_age": "18", "name": "Foiegwa", "opening_hours": "Mo-Th 17:00-02:00; Fr-Su 10:00-15:00,17:00-02:00", "phone": "+1-438-387-4252"}}, {"type": "node", "id": 2172009109, "lat": 45.4815697, "lon": -73.5776289, "tags": {"amenity": "restaurant", "name": "Quoi de N'Oeuf", "toilets:wheelchair": "no", "wheelchair": "yes"}}, {"type": "node", "id": 2172009112, "lat": 45.481719, "lon": -73.5773768, "tags": {"addr:city": "Montr\u00e9al", "addr:housenumber": "2725", "addr:street": "Rue Notre-Dame Ouest", "amenity": "restaurant", "name": "Soupe caf\u00e9 et cuisine sant\u00e9"}}, {"type": "node", "id": 2172009123, "lat": 45.4824761, "lon": -73.5761728, "tags": {"addr:city": "Montr\u00e9al", "addr:housenumber": "2621", "addr:street": "Rue Notre-Dame Ouest", "amenity": "restaurant", "cuisine": "health_food", "name": "le Kitchen", "phone": "+1-514-544-1717", "website": "https://breathekitchen.wordpress.com/"}}, {"type": "node", "id": 2175719633, "lat": 45.5092343, "lon": -73.5734233, "tags": {"amenity": "restaurant", "name": "Asha Resto Indien", "wheelchair": "limited"}}, {"type": "node", "id": 2182439097, "lat": 45.508748, "lon": -73.5514673}, {"type": "node", "id": 2182439099, "lat": 45.508801, "lon": -73.5517063}, {"type": "node", "id": 2236128095, "lat": 45.538026, "lon": -73.618125, "tags": {"amenity": "restaurant", "name": "Caf\u00e9 Bistro L'enchanteur", "outdoor_seating": "yes"}}, {"type": "node", "id": 2236152881, "lat": 45.518287, "lon": -73.578261, "tags": {"addr:city": "Montr\u00e9al", "addr:housenumber": "4050", "addr:postcode": "H2W 2E5", "addr:street": "Rue De Bullion", "amenity": "restaurant", "cuisine": "sandwich", "name": "Capitaine Sandwich", "website": "https://capitainesandwich.com/"}}, {"type": "node", "id": 2249203901, "lat": 45.538921, "lon": -73.5825103, "tags": {"amenity": "restaurant", "cuisine": "coffee_shop", "name": "L'entre-pot", "opening_hours": "Mo-Su 08:00-18:00+", "wheelchair": "no"}}, {"type": "node", "id": 2249494896, "lat": 45.5168509, "lon": -73.6426098, "tags": {"amenity": "restaurant", "name": "Dupont et Dupond"}}, {"type": "node", "id": 2249497424, "lat": 45.5162784, "lon": -73.6434637, "tags": {"amenity": "restaurant", "cuisine": "pizza", "name": "La Pizza\u00efole"}}, {"type": "node", "id": 2249505311, "lat": 45.5136674, "lon": -73.6471498, "tags": {"amenity": "restaurant", "cuisine": "sushi", "name": "Sakana"}}, {"type": "node", "id": 2249505474, "lat": 45.5137797, "lon": -73.6474169, "tags": {"amenity": "restaurant", "cuisine": "chicken", "name": "Restaurant portugais Galo"}}, {"type": "node", "id": 2249525621, "lat": 45.5171008, "lon": -73.6442052, "tags": {"amenity": "restaurant", "cuisine": "sushi", "name": "Hinata"}}, {"type": "node", "id": 2300342965, "lat": 45.5231835, "lon": -73.5612958, "tags": {"addr:city": "Montr\u00e9al", "addr:housenumber": "1365", "addr:street": "Rue Ontario Est", "amenity": "restaurant", "brand": "Poutineville", "brand:wikidata": "Q125489462", "cuisine": "poutine", "name": "Poutineville", "name:zh": "\u8089\u6c41\u85af\u6761", "wikidata": "Q125489443", "wikimedia_commons": "File:Poutineville_@_Montr\u00e9al_(30422733032).jpg"}}, {"type": "node", "id": 2316577147, "lat": 45.5146512, "lon": -73.5752257, "tags": {"addr:housenumber": "10", "addr:street": "Avenue des Pins Ouest", "alt_name": "Halbro Bldg", "amenity": "restaurant", "cuisine": "sandwich", "internet_access": "wlan", "name": "Nouri", "wheelchair": "no"}}, {"type": "node", "id": 2316603588, "lat": 45.5193619, "lon": -73.580638, "tags": {"addr:city": "Montr\u00e9al", "addr:housenumber": "115", "addr:postcode": "H2W 1C8", "addr:street": "Rue Rachel Est", "amenity": "restaurant", "check_date": "2023-03-12", "cuisine": "chicken", "indoor_seating": "yes", "name": "R\u00f4tisserie Romados", "opening_hours:covid19": "closed", "outdoor_seating": "no", "payment:mastercard": "yes", "payment:visa": "yes", "phone": "+1-514-849-1803"}}, {"type": "node", "id": 2321090058, "lat": 45.4627186, "lon": -73.5637365, "tags": {"amenity": "restaurant", "name": "Chez Zappy", "wheelchair": "no"}}, {"type": "node", "id": 2329656661, "lat": 45.5069934, "lon": -73.5606877, "tags": {"addr:city": "Montr\u00e9al", "addr:housenumber": "92", "addr:street": "Rue de La Gaucheti\u00e8re Ouest", "amenity": "restaurant", "cuisine": "chinese", "name": "Restaurant Beijing", "source": "survey"}}, {"type": "node", "id": 2329667304, "lat": 45.5079858, "lon": -73.5594301, "tags": {"addr:city": "Montr\u00e9al", "addr:housenumber": "1007", "addr:province": "QC", "addr:street": "Boulevard Saint-Laurent", "amenity": "restaurant", "cuisine": "japanese", "drive_in": "no", "name": "Sumo Ramen", "outdoor_seating": "no", "phone": "+1-514-940-3668", "takeaway": "yes"}}, {"type": "node", "id": 2329681339, "lat": 45.5080867, "lon": -73.5596482, "tags": {"addr:housenumber": "1019", "addr:street": "Boulevard Saint-Laurent", "amenity": "restaurant", "cuisine": "chinese", "drive_in": "no", "name": "Quing Hua Dumpling", "outdoor_seating": "no", "phone": "+1-214-748-3647", "wheelchair": "no"}}, {"type": "node", "id": 2329684759, "lat": 45.5081672, "lon": -73.5598298, "tags": {"addr:city": "Montr\u00e9al", "addr:country": "CA", "addr:housenumber": "1027", "addr:province": "QC", "addr:street": "Boulevard Saint-Laurent", "amenity": "restaurant", "cuisine": "chinese", "drive_in": "no", "name": "Restaurant Amigo", "outdoor_seating": "no", "phone": "+1-214-748-3647", "wheelchair": "no"}}, {"type": "node", "id": 2329691909, "lat": 45.5072747, "lon": -73.5604864, "tags": {"addr:city": "Montr\u00e9al", "addr:housenumber": "72", "addr:street": "De La Gaucheti\u00e8re", "amenity": "restaurant", "cuisine": "chinese", "name": "Restaurant Ethan", "phone": "+1-514-861-0815"}}, {"type": "node", "id": 2329693362, "lat": 45.5082597, "lon": -73.5600466, "tags": {"addr:city": "Montr\u00e9al", "addr:country": "CA", "addr:housenumber": "1053", "addr:province": "QC", "addr:street": "Boulevard Saint-Laurent", "amenity": "restaurant", "cuisine": "vietnamese", "drive_in": "no", "name": "Pho Saigon Viet-Nam", "outdoor_seating": "no", "phone": "+1-214-748-3647", "takeaway": "yes"}}, {"type": "node", "id": 2329699070, "lat": 45.5084352, "lon": -73.5604345, "tags": {"addr:city": "Montr\u00e9al", "addr:country": "CA", "addr:housenumber": "1071", "addr:province": "QC", "addr:street": "Boulevard Saint-Laurent", "amenity": "restaurant", "cuisine": "vietnamese", "drive_in": "no", "name": "Banh Mi", "outdoor_seating": "no", "phone": "+1-514-748-3647", "wheelchair": "no"}}, {"type": "node", "id": 2329700537, "lat": 45.5083191, "lon": -73.5597453, "tags": {"addr:housenumber": "14", "addr:street": "De La Gaucheti\u00e8re", "amenity": "restaurant", "cuisine": "chinese", "name": "Panda Dor\u00e9"}}, {"type": "node", "id": 2329714137, "lat": 45.5075091, "lon": -73.5591287, "tags": {"addr:city": "Montr\u00e9al", "addr:housenumber": "970", "addr:street": "St. Laurent", "amenity": "restaurant", "cuisine": "vietnamese", "name": "Pho Vietnam", "phone": "+1-514-954-9644"}}, {"type": "node", "id": 2329792822, "lat": 45.5073942, "lon": -73.559883, "tags": {"addr:city": "Montr\u00e9al", "addr:housenumber": "1008", "addr:postcode": "H2Z 1J9", "addr:street": "Rue Clark", "amenity": "restaurant", "cuisine": "chinese", "name": "Restaurant Ruby Rouge", "phone": "+1-514-390-8828", "source": "survey", "website": "http://www.restaurantrubyrouge.ca"}}, {"type": "node", "id": 2329809438, "lat": 45.5073138, "lon": -73.5604524, "tags": {"amenity": "restaurant", "cuisine": "chinese", "name": "Restaurant Keung Kee"}}, {"type": "node", "id": 2329826081, "lat": 45.5072112, "lon": -73.5608134, "tags": {"amenity": "restaurant", "cuisine": "japanese", "name": "Kagayaki", "phone": "+1-514-396-4746"}}, {"type": "node", "id": 2329848030, "lat": 45.5074296, "lon": -73.5605907, "tags": {"amenity": "restaurant", "cuisine": "chinese", "name": "Restaurant Jade"}}, {"type": "node", "id": 2329859298, "lat": 45.5076552, "lon": -73.5603976, "tags": {"amenity": "restaurant", "cuisine": "chinese", "name": "Oh! Dumplings", "website": "https://ohdumplings.ca/"}}, {"type": "node", "id": 2329868501, "lat": 45.5085424, "lon": -73.5597754, "tags": {"amenity": "restaurant", "cuisine": "chinese", "name": "Restaurant Mon Nan"}}, {"type": "node", "id": 2329963639, "lat": 45.5079536, "lon": -73.5607014, "tags": {"addr:city": "Montr\u00e9al", "addr:housenumber": "1077", "addr:street": "Rue Clark", "amenity": "restaurant", "cuisine": "chinese", "name": "La Maison VIP", "opening_hours": "Mo-Su 11:30-04:00"}}, {"type": "node", "id": 2332414412, "lat": 45.5242827, "lon": -73.5958082, "tags": {"amenity": "restaurant", "name": "soy", "opening_hours": "Mo-We 11:30-22:00; Th, Fr 11:30-23:00; Sa 17:00-23:00; Su 17:00-22:00"}}, {"type": "node", "id": 2342927943, "lat": 45.5239681, "lon": -73.5945022, "tags": {"addr:city": "Montr\u00e9al", "addr:housenumber": "5195", "addr:postcode": "H2T 1R9", "addr:street": "Boulevard Saint-Laurent", "amenity": "restaurant", "cuisine": "indian", "name": "Porte de l'Inde", "name:en": "Gate of India", "phone": "+1-514-277-1515", "source": "survey"}}, {"type": "node", "id": 2355282804, "lat": 45.4715682, "lon": -73.6344928, "tags": {"addr:city": "Montr\u00e9al", "addr:housenumber": "6200", "addr:postcode": "H3X 2B3", "addr:province": "Qu\u00e9bec", "addr:street": "Avenue Somerled", "amenity": "restaurant", "cuisine": "italian", "name": "B&M", "outdoor_seating": "seasonal"}}, {"type": "node", "id": 2362675537, "lat": 45.491375, "lon": -73.5659515}, {"type": "node", "id": 2362675538, "lat": 45.491284, "lon": -73.5657541}, {"type": "node", "id": 2362675539, "lat": 45.4913859, "lon": -73.5656652}, {"type": "node", "id": 2362675540, "lat": 45.4914768, "lon": -73.5658613}, {"type": "node", "id": 2379217449, "lat": 45.5094339, "lon": -73.6303886, "tags": {"addr:city": "Montr\u00e9al", "addr:housenumber": "6690", "addr:postcode": "H3S 2J5", "addr:province": "Qu\u00e9bec", "addr:street": "Avenue de Darlington", "amenity": "restaurant", "cuisine": "chinese", "name": "Restaurant Sing Fai"}}, {"type": "node", "id": 2406177002, "lat": 45.5221686, "lon": -73.6132262, "tags": {"amenity": "restaurant", "cuisine": "french", "name": "Paris-Beurre"}}, {"type": "node", "id": 2408134295, "lat": 45.5206944, "lon": -73.6145009, "tags": {"addr:housenumber": "1356", "addr:street": "Van Horne", "amenity": "restaurant", "cuisine": "vietnamese", "name": "Restaurant Doan"}}, {"type": "node", "id": 2408138416, "lat": 45.520606, "lon": -73.61458, "tags": {"addr:housenumber": "1368", "addr:street": "Van Horne", "amenity": "restaurant", "cuisine": "sushi", "name": "Sushi Yen"}}, {"type": "node", "id": 2408154703, "lat": 45.5223538, "lon": -73.6130672, "tags": {"addr:housenumber": "1210", "addr:postcode": "H2V 1K3", "addr:street": "Van Horne", "amenity": "restaurant", "cuisine": "international", "name": "Les bons petits plats", "website": "https://debonspetitsplats.com/"}}, {"type": "node", "id": 2408157147, "lat": 45.5233122, "lon": -73.6122089, "tags": {"addr:housenumber": "1148", "addr:postcode": "H2V 1J8", "addr:street": "Van Horne", "amenity": "restaurant", "name": "Provisions bar \u00e0 vin", "opening_hours": "Mo-Su 11:00-23:00"}}, {"type": "node", "id": 2408157597, "lat": 45.5234559, "lon": -73.6120936, "tags": {"addr:housenumber": "1134", "addr:postcode": "H2V 1J8", "addr:street": "Van Horne", "amenity": "restaurant", "name": "DJ Poulet"}}, {"type": "node", "id": 2418230281, "lat": 45.5584588, "lon": -73.5686004, "tags": {"addr:city": "Montr\u00e9al", "addr:housenumber": "4028", "addr:postcode": "H1X 1T8", "addr:street": "Rue Masson", "amenity": "restaurant", "check_date": "2023-06-26", "name": "Chez La M\u00e8re", "opening_hours": "24/7", "phone": "+1-514-725-9391", "website": "https://www.restaurantchezlamere.com/"}}, {"type": "node", "id": 2420849999, "lat": 45.5508677, "lon": -73.548955, "tags": {"addr:city": "Montr\u00e9al", "addr:housenumber": "3924", "addr:postcode": "H1W 1J9", "addr:street": "Rue Hochelaga", "amenity": "restaurant", "cuisine": "chinese;pizza", "indoor_seating": "yes", "name": "Jimmy Restaurant", "opening_hours": "PH,Mo-Su 11:00-12:00", "outdoor_seating": "no", "phone": "+1-514-255-2462"}}, {"type": "node", "id": 2422223384, "lat": 45.5204466, "lon": -73.5625735, "tags": {"addr:housenumber": "1112", "addr:street": "Ontario", "amenity": "restaurant", "level": "0", "name": "Les d\u00e9lices Sirar", "opening_hours": "Mo-Fr 09:00-19:00; Sa 09:00-18:00; Su off", "phone": "+1-514-439-9996", "website": "https://lesdelicessirar.com/"}}, {"type": "node", "id": 2422279689, "lat": 45.5202765, "lon": -73.562703, "tags": {"addr:city": "Montr\u00e9al", "addr:housenumber": "1104", "addr:street": "Ontario", "amenity": "restaurant", "cuisine": "sushi", "name": "4 saisons", "source": "local_knowledge"}}, {"type": "node", "id": 2422279765, "lat": 45.522911, "lon": -73.5614924, "tags": {"addr:city": "Montr\u00e9al", "addr:housenumber": "1347", "addr:street": "Ontario", "amenity": "restaurant", "cuisine": "greek", "name": "Usine Grecque", "source": "local_knowledge"}}, {"type": "node", "id": 2422318900, "lat": 45.519556, "lon": -73.5613758, "tags": {"addr:housenumber": "1799", "amenity": "restaurant", "cuisine": "japanese", "name": "Uchi", "opening_hours": "Tu-Th 11:00-14:30,17:00-22:00; Fr 11:00-14:30,17:00-23:00; Sa 17:00-23:00; Su 17:00-22:00", "website": "http://www.uchisuchi.com/"}}, {"type": "node", "id": 2422318912, "lat": 45.5188996, "lon": -73.5599775, "tags": {"addr:housenumber": "1663", "amenity": "restaurant", "cuisine": "vietnamese", "name": "Pho Viet", "opening_hours": "Mo-Fr 11:30-15:00,17:00-22:00; Sa 17:00-22:00", "phone": "+1-514-522-4116"}}, {"type": "node", "id": 2422319021, "lat": 45.5183148, "lon": -73.5586178, "tags": {"addr:housenumber": "1101", "addr:street": "Boulevard de Maisonneuve Est", "amenity": "restaurant", "cuisine": "japanese", "name": "Le Blossom", "phone": "+1-514-523-9181", "source": "survey"}}, {"type": "node", "id": 2422370220, "lat": 45.4286157, "lon": -73.6297943, "tags": {"addr:city": "Montr\u00e9al", "addr:housenumber": "1661", "addr:postcode": "H8N 1T7", "addr:street": "Avenue Dollard", "amenity": "restaurant", "cuisine": "indian", "diet:vegetarian": "yes", "name": "Les D\u00e9lices du Punjab", "phone": "+1-514-365-1312", "source": "survey"}}, {"type": "node", "id": 2423305651, "lat": 45.4948997, "lon": -73.637423, "tags": {"addr:city": "Montr\u00e9al", "addr:housenumber": "4759", "addr:postcode": "H3W 1H8", "addr:province": "Qu\u00e9bec", "addr:street": "Avenue Van Horne", "amenity": "restaurant", "cuisine": "indian", "name": "Thanjai", "source": "Survey", "website": "www.thanjairestaurant.com"}}, {"type": "node", "id": 2428620438, "lat": 45.521467, "lon": -73.5753738, "tags": {"addr:city": "Montr\u00e9al", "addr:housenumber": "451", "addr:street": "Avenue Duluth Est", "amenity": "restaurant", "name": "le gros lux", "source": "NRCan-CanVec-10.0"}}, {"type": "node", "id": 2429686581, "lat": 45.549698, "lon": -73.5740806, "tags": {"addr:city": "Montr\u00e9al", "addr:housenumber": "3141", "addr:street": "Rue Masson", "amenity": "restaurant", "name": "Pot Masson", "opening_hours": "Mo-Su 08:00-18:00+", "source": "NRCan-CanVec-10.0", "wheelchair": "no"}}, {"type": "node", "id": 2429689737, "lat": 45.5318187, "lon": -73.6176597, "tags": {"addr:city": "Montr\u00e9al", "addr:housenumber": "7032", "addr:postcode": "H2S 3J2", "addr:street": "Rue Waverly", "amenity": "restaurant", "cuisine": "burger;sandwich;soup", "diet:vegan": "no", "diet:vegetarian": "yes", "email": "deppickup@gmail.com", "name": "D\u00e9panneur Le Pick-Up", "opening_hours": "Tu-Sa 11:00-18:00", "phone": "+1-514-271-8011", "shop": "convenience", "source": "NRCan-CanVec-10.0", "website": "http://depanneurlepickup.com"}}, {"type": "node", "id": 2437800400, "lat": 45.4348577, "lon": -73.6753277, "tags": {"addr:city": "Montr\u00e9al", "addr:housenumber": "1299", "addr:street": "Rue Notre-Dame", "amenity": "restaurant", "cuisine": "lebanese", "diet:vegetarian": "yes", "name": "Falafel St. Jacques", "source": "NRCan-CanVec-10.0"}}, {"type": "node", "id": 2437801570, "lat": 45.433115, "lon": -73.6816269, "tags": {"addr:city": "Montr\u00e9al", "addr:housenumber": "1900", "addr:street": "Boulevard Saint-Joseph", "amenity": "restaurant", "cuisine": "italian", "name": "Il Fornetto", "source": "NRCan-CanVec-10.0"}}, {"type": "node", "id": 2438066005, "lat": 45.4585589, "lon": -73.5672696, "tags": {"addr:city": "Montr\u00e9al", "addr:housenumber": "4578", "addr:street": "Rue Wellington", "source": "NRCan-CanVec-10.0"}}, {"type": "node", "id": 2439184626, "lat": 45.4964427, "lon": -73.5785902, "tags": {"addr:city": "Montr\u00e9al", "addr:housenumber": "1460", "addr:street": "Rue Mackay", "amenity": "restaurant", "cuisine": "chinese", "name": "Shifu", "opening_hours": "Mo-Su 11:00-23:00", "source": "NRCan-CanVec-10.0"}}, {"type": "node", "id": 2439188227, "lat": 45.4747579, "lon": -73.5871117, "tags": {"addr:city": "Montr\u00e9al", "addr:housenumber": "4401", "addr:street": "Rue Notre-Dame Ouest", "amenity": "restaurant", "cuisine": "mexican", "name": "Le Tequila Bar", "source": "NRCan-CanVec-10.0"}}, {"type": "node", "id": 2439209848, "lat": 45.4975828, "lon": -73.5569094, "tags": {"addr:city": "Montr\u00e9al", "addr:housenumber": "257", "addr:postcode": "H3C 1N9", "addr:province": "QC", "addr:street": "Rue Prince", "amenity": "restaurant", "cuisine": "italian", "diet:vegan": "no", "diet:vegetarian": "limited", "name": "Le Serpent", "name:en": "The Serpent", "opening_hours": "Mo-We 17:45-22:30; Th-Fr 17:45-23:00; Sa 17:00-23:00", "phone": "+1-514-316-4666", "website": "https://www.leserpent.ca"}}, {"type": "node", "id": 2443412520, "lat": 45.5202565, "lon": -73.5547229, "tags": {"addr:city": "Montr\u00e9al", "addr:street": "Rue Sainte-Catherine Est", "amenity": "restaurant", "cuisine": "mexican", "name": "Chilanga", "source": "local_knowledge"}}, {"type": "node", "id": 2443412536, "lat": 45.5198593, "lon": -73.5550471, "tags": {"addr:city": "Montr\u00e9al", "addr:housenumber": "1333", "addr:street": "Rue Sainte-Catherine Est", "amenity": "restaurant", "name": "Saloon", "source": "local_knowledge", "wheelchair": "limited", "wheelchair:description": "Toilettes aux sous-sol."}}, {"type": "node", "id": 2443412544, "lat": 45.5201245, "lon": -73.5548106, "tags": {"addr:city": "Montr\u00e9al", "addr:street": "Rue Sainte-Catherine Est", "amenity": "restaurant", "cuisine": "asian", "name": "Fantasie", "outdoor_seating": "yes", "source": "local_knowledge", "wheelchair": "limited", "wheelchair:description": "Acc\u00e8s aux toilettes \u00e0 v\u00e9rifier."}}, {"type": "node", "id": 2443412565, "lat": 45.5198151, "lon": -73.5550949, "tags": {"addr:city": "Montr\u00e9al", "addr:housenumber": "1329", "addr:street": "Rue Sainte-Catherine Est", "amenity": "restaurant", "cuisine": "indian", "name": "La Tabla", "source": "local_knowledge", "wheelchair": "limited"}}, {"type": "node", "id": 2443570573, "lat": 45.520492, "lon": -73.554534, "tags": {"addr:city": "Montr\u00e9al", "addr:housenumber": "1389", "addr:street": "Rue Sainte-Catherine Est", "amenity": "restaurant", "cuisine": "vietnamese", "name": "Le go\u00fbt du Vietnam", "outdoor_seating": "no", "smoking": "no", "source": "local_knowledge", "takeaway": "yes", "wheelchair": "no"}}, {"type": "node", "id": 2446632955, "lat": 45.5616193, "lon": -73.5418876}, {"type": "node", "id": 2446632960, "lat": 45.5616983, "lon": -73.5421374}, {"type": "node", "id": 2447361075, "lat": 45.561682, "lon": -73.5418489}, {"type": "node", "id": 2447361077, "lat": 45.5617629, "lon": -73.5420932}, {"type": "node", "id": 2447365989, "lat": 45.5616866, "lon": -73.5421005}, {"type": "node", "id": 2452213723, "lat": 45.4348995, "lon": -73.68631, "tags": {"addr:city": "Lachine", "addr:housenumber": "200", "addr:postcode": "H8S 3X1", "addr:street": "25\u00e8me Avenue", "amenity": "restaurant", "cuisine": "nepalese;indian;italian", "name": "Restaurant Shangrila", "phone": "+1-514-634-0000", "source": "Sylvain L\u00e9ger", "website": "http://www.shangrilaram.com"}}, {"type": "node", "id": 2459746289, "lat": 45.4762764, "lon": -73.6225383, "tags": {"addr:city": "Montr\u00e9al", "addr:housenumber": "5555", "addr:street": "Avenue de Monkland", "amenity": "restaurant", "name": "Taverne Monkland", "outdoor_seating": "summer", "source": "local_knowledge;survey", "website": "http://www.monklandtavern.com/"}}, {"type": "node", "id": 2459774491, "lat": 45.4753044, "lon": -73.6233761, "tags": {"addr:city": "Montr\u00e9al", "addr:housenumber": "5645", "addr:postcode": "H4A 1E2", "addr:street": "Avenue de Monkland", "amenity": "restaurant", "cuisine": "thai", "name": "Bangkok Express", "opening_hours": "Mo-Su 11:30-22:00", "source": "local_knowledge", "website": "https://www.bangkok-express.ca/"}}, {"type": "node", "id": 2468941387, "lat": 45.5361933, "lon": -73.6077401, "tags": {"addr:city": "Montreal", "addr:housenumber": "6696", "addr:street": "Rue de Saint-Vallier", "amenity": "restaurant", "diet:vegetarian": "only", "name": "Santa Barbara", "opening_hours": "We-Th 17:00-22:00; Fr-Sa 17:00-22:30", "phone": "+1-514-273-4555", "website": "https://santabarbaramtl.ca/home.html"}}, {"type": "node", "id": 2481879480, "lat": 45.5265755, "lon": -73.5735325, "tags": {"addr:city": "Montr\u00e9al", "addr:housenumber": "1201", "addr:postcode": "H2J 2J8", "addr:province": "Qu\u00e9bec", "addr:street": "Rue Rachel Est", "addr:suburb": "Le Plateau-Mont-Royal", "amenity": "restaurant", "internet_access": "wlan", "name": "Le Poisson Rouge", "phone": "+1 514 522 4876", "website": "https://www.restaurantlepoissonrouge.ca/"}}, {"type": "node", "id": 2481879481, "lat": 45.5220262, "lon": -73.5845047, "tags": {"addr:housenumber": "200", "addr:postcode": "H2T 1P3", "addr:province": "QC", "addr:street": "Avenue du Mont-Royal Est", "addr:suburb": "Le Plateau-Mont-Royal", "amenity": "restaurant", "internet_access": "wlan", "name": "Le Scoop", "opening_hours": "Mo,Tu 15:00-02:00, We-Fr 15:00-03:00, Sa 15:00-03:00, Su 18:00-03:00", "phone": "+1 514 843 9076", "wheelchair": "yes"}}, {"type": "node", "id": 2481906160, "lat": 45.5494102, "lon": -73.5909922, "tags": {"addr:housenumber": "2536", "addr:postcode": "H1Y 1G2", "addr:province": "QC", "addr:street": "Rue Beaubien Est", "addr:suburb": "Rosemont-Petite-Patrie", "amenity": "restaurant", "indoor_seating": "yes", "internet_access": "wlan", "name": "Cafe Mucho Gusto", "outdoor_seating": "no", "phone": "+1 514 722 6421"}}, {"type": "node", "id": 2481906161, "lat": 45.5490078, "lon": -73.5741764, "tags": {"addr:city": "Montr\u00e9al", "addr:housenumber": "3036", "addr:postcode": "H1Y 1X6", "addr:province": "QC", "addr:street": "Rue Masson", "addr:suburb": "Rosemont-Petite-Patrie", "amenity": "restaurant", "check_date:opening_hours": "2023-07-23", "cuisine": "burger", "name": "Joyo Burger", "opening_hours:signed": "no"}}, {"type": "node", "id": 2481906163, "lat": 45.5495172, "lon": -73.5741947, "tags": {"addr:housenumber": "3119", "addr:postcode": "H1Y 1X9", "addr:province": "QC", "addr:street": "Rue Masson", "addr:suburb": "Rosemont-Petite-Patrie", "amenity": "restaurant", "indoor_seating": "yes", "internet_access": "wlan", "internet_access:fee": "no", "internet_access:operator": "\u00cele Sans Fil", "name": "Caf\u00e9 L\u00e9zard", "opening_hours": "Mo-Sa 11:00-23:00", "outdoor_seating": "no", "phone": "+1 514 729 3777", "website": "https://cafelezard.ca/", "wheelchair": "yes"}},